$GPGGA,222255.663,4042.27402,N,07400.85420,W,0,00,3.8,261.26,M,-34.24,M,,0*53
$GPGSA,A,1,,,,,,,,,,,,,,,*1e
$GPGSV,8,1,32,07,,,44,17,,,,28,,,,430,,,*4d
$GPGSV,8,2,32,15,,,,05,,,,23,,,,432,,,39*4d
$GPGSV,8,3,32,21,,,,429,,,38,14,,,,11,,,28*4b
$GPGSV,8,4,32,31,,,,22,,,,19,,,,08,,,44*76
$GPGSV,8,5,32,32,,,,04,,,,09,,,,16,,,*7e
$GPGSV,8,6,32,12,,,,29,,,,20,,,,03,,,*7f
$GPGSV,8,7,32,425,,,,427,,,,428,,,,434,,,*78
$GPGSV,8,8,32,433,,,,431,,,44,437,,,,438,,,*75
$GPGLL,0000.00000,N,00000.00000,E,222255.66,V*13
$GPRMC,222255.66,V,4042.27402,N,07400.85420,W,,,300611,,,A*57
$GPVTG,,T,,M,,N,,K,A*23
$PADAC,,N,,E,,U,,N,,E,,U,,M,,H*52
$PADCP,,,,,,,*6a
$PADCV,,,,,,,*6c
$PADRA,0,001.403,0.00,0.00,0.00,0,P,0,000.045,0.00,0.00,0.00,9*34
$PADTI,426190.663748,1642,2,8,-1.499999963e+01,0.00e+00,6938,S,D1,00*53
$PADCL,-571.486,-458.247,C,-300.0,-300.0,D,8476,8587,I,3710,2888,R,0.00,T*0d
$PADCH,4,1,32,7,17,28,430,15,5,23,432,F2200007,71111117,00100010*22
$PADCH,4,2,32,21,429,14,11,31,22,19,8,070B002F,17171117,10000010*55
$PADCH,4,3,32,32,4,9,16,12,29,20,3,00000000,11111111,00010001*6a
$PADCH,4,4,32,425,427,428,434,433,431,437,438,00000700,11111711,14010000*58
$PADST,FFF903EB,000,3010,V,1,C,689,660,660,2640,282,N,39,0*44
$PADES,0701C090,02000000,00000000,2AD49024*31
$PADAS,1FFFFFFF,FF800000,00000000,DFFFFFFE*39
$GPGGA,222256.663,4042.27402,N,07400.85420,W,0,00,3.8,261.26,M,-34.24,M,,0*50
$GPGSA,A,1,,,,,,,,,,,,,,,*1e
$GPGSV,8,1,32,07,,,44,17,,,,28,,,,430,,,*4d
$GPGSV,8,2,32,15,,,,05,,,,23,,,,432,,,40*43
$GPGSV,8,3,32,21,,,,429,,,39,14,,,,11,,,26*44
$GPGSV,8,4,32,31,,,,22,,,,19,,,,08,,,45*77
$GPGSV,8,5,32,32,,,,04,,,,09,,,,16,,,*7e
$GPGSV,8,6,32,12,,,,02,,,,20,,,,03,,,*76
$GPGSV,8,7,32,425,,,,427,,,,428,,,,435,,,*79
$GPGSV,8,8,32,433,,,,431,,,45,437,,,,438,,,*74
$GPGLL,0000.00000,N,00000.00000,E,222256.66,V*10
$GPRMC,222256.66,V,4042.27402,N,07400.85420,W,,,300611,,,A*54
$GPVTG,,T,,M,,N,,K,A*23
$PADAC,,N,,E,,U,,N,,E,,U,,M,,H*52
$PADCP,,,,,,,*6a
$PADCV,,,,,,,*6c
$PADRA,0,001.403,0.00,0.00,0.00,0,P,0,000.045,0.00,0.00,0.00,9*34
$PADTI,426191.663753,1642,2,10,-1.499999963e+01,0.00e+00,6948,S,E1,00*67
$PADCL,-571.486,-458.247,C,-300.0,-300.0,D,8476,8587,I,3720,2888,R,0.00,T*0e
$PADCH,4,1,32,7,17,28,430,15,5,23,432,F2210007,71111117,00100010*23
$PADCH,4,2,32,21,429,14,11,31,22,19,8,070F002F,17171117,10000010*51
$PADCH,4,3,32,32,4,9,16,12,2,20,3,00000000,11111111,00010001*53
$PADCH,4,4,32,425,427,428,435,433,431,437,438,00000700,11111711,14010000*59
$PADST,F7F303E5,000,3010,V,1,C,683,660,660,2640,283,N,39,0*43
$PADES,0701C090,02000000,00000000,2AD49024*31
$PADAS,1FFFFFFF,FF800000,00000000,DFFFFFFE*39
$GPGGA,222257.663,4042.27402,N,07400.85420,W,0,00,3.8,261.26,M,-34.24,M,,0*51
$GPGSA,A,1,,,,,,,,,,,,,,,*1e
$GPGSV,8,1,32,07,,,45,17,,,,28,,,,430,,,*4c
$GPGSV,8,2,32,15,,,,05,,,,18,,,,432,,,41*4a
$GPGSV,8,3,32,21,,,,429,,,40,14,,,,11,,,24*48
$GPGSV,8,4,32,31,,,,22,,,,19,,,,08,,,45*77
$GPGSV,8,5,32,32,,,,04,,,,09,,,,16,,,*7e
$GPGSV,8,6,32,12,,,,02,,,,13,,,,03,,,*76
$GPGSV,8,7,32,425,,,,427,,,,428,,,01,435,,,*78
$GPGSV,8,8,32,433,,,,431,,,45,437,,,,436,,,*7a
$GPGLL,0000.00000,N,00000.00000,E,222257.66,V*11
$GPRMC,222257.66,V,4042.27402,N,07400.85420,W,,,300611,,,A*55
$GPVTG,,T,,M,,N,,K,A*23
$PADAC,,N,,E,,U,,N,,E,,U,,M,,H*52
$PADCP,,,,,,,*6a
$PADCV,,,,,,,*6c
$PADRA,0,001.403,0.00,0.00,0.00,0,P,0,000.045,0.00,0.00,0.00,9*34
$PADTI,426192.663759,1642,3,1,-1.499999963e+01,0.00e+00,6958,S,E1,00*5e
$PADCL,-571.486,-458.247,C,-300.0,-300.0,D,8476,8582,I,3710,2894,R,0.00,T*05
$PADCH,4,1,32,7,17,28,430,15,5,18,432,F2210007,71111117,00100000*2a
$PADCH,4,2,32,21,429,14,11,31,22,19,8,070F002F,17171117,10000010*51
$PADCH,4,3,32,32,4,9,16,12,2,13,3,00000000,11111111,00010010*53
$PADCH,4,4,32,425,427,428,435,433,431,437,436,00000700,11311711,14010001*54
$PADST,EFED03E1,000,3010,V,1,C,681,660,660,2640,271,N,39,0*4e
$PADES,0701C090,02000000,00000000,2AD49024*31
$PADAS,1FFFFFFF,FF800000,00000000,DFFFFFFE*39
$GPGGA,222258.663,4042.27402,N,07400.85420,W,0,00,3.8,261.26,M,-34.24,M,,0*5e
$GPGSA,A,1,,,,,,,,,,,,,,,*1e
$GPGSV,8,1,32,07,,,45,06,,,,27,,,,430,,,*43
$GPGSV,8,2,32,15,,,,05,,,,18,,,,432,,,42*49
$GPGSV,8,3,32,21,,,,429,,,40,14,,,,11,,,21*4d
$GPGSV,8,4,32,31,,,,22,,,,19,,,,08,,,45*77
$GPGSV,8,5,32,32,,,,04,,,,09,,,,16,,,*7e
$GPGSV,8,6,32,12,,,,02,,,,13,,,,26,,,*71
$GPGSV,8,7,32,425,,,,427,,,,428,,,,435,,,*79
$GPGSV,8,8,32,433,,,,431,,,46,437,,,,436,,,*79
$GPGLL,0000.00000,N,00000.00000,E,222258.66,V*1e
$GPRMC,222258.66,V,4042.27402,N,07400.85420,W,,,300611,,,A*5a
$GPVTG,,T,,M,,N,,K,A*23
$PADAC,,N,,E,,U,,N,,E,,U,,M,,H*52
$PADCP,,,,,,,*6a
$PADCV,,,,,,,*6c
$PADRA,0,001.403,0.00,0.00,0.00,0,P,0,000.045,0.00,0.00,0.00,9*34
$PADTI,426193.663765,1642,3,3,-1.499999963e+01,0.00e+00,6968,S,F1,00*52
$PADCL,-571.486,-458.247,C,-300.0,-300.0,D,8476,8577,I,3710,2888,R,0.00,T*02
$PADCH,4,1,32,7,6,27,430,15,5,18,432,F0010007,71111117,01000000*15
$PADCH,4,2,32,21,429,14,11,31,22,19,8,070F002F,17171117,10000010*51
$PADCH,4,3,32,32,4,9,16,12,2,13,26,00000000,11111111,00010011*65
$PADCH,4,4,32,425,427,428,435,433,431,437,436,00000700,11111711,14010001*56
$PADST,E7EF03E1,000,3010,V,1,C,685,660,660,2640,262,N,39,0*3b
$PADES,0701C090,02000000,00000000,2AD49024*31
$PADAS,1FFFFFFF,FF800000,00000000,DFFFFFFE*39
$GPGGA,222259.663,4042.27402,N,07400.85420,W,0,00,3.8,261.26,M,-34.24,M,,0*5f
$GPGSA,A,1,,,,,,,,,,,,,,,*1e
$GPGSV,8,1,32,07,,,44,06,,,,27,,,,430,,,*42
$GPGSV,8,2,32,15,,,,05,,,,18,,,,432,,,41*4a
$GPGSV,8,3,32,21,,,,429,,,41,14,,,,11,,,19*47
$GPGSV,8,4,32,31,,,,22,,,,24,,,,08,,,44*78
$GPGSV,8,5,32,32,,,,04,,,,09,,,,16,,,*7e
$GPGSV,8,6,32,12,,,,02,,,,13,,,,26,,,00*71
$GPGSV,8,7,32,425,,,,434,,,,428,,,,435,,,*7b
$GPGSV,8,8,32,426,,,,431,,,45,438,,,,436,,,*71
$GPGLL,0000.00000,N,00000.00000,E,222259.66,V*1f
$GPRMC,222259.66,V,4042.27402,N,07400.85420,W,,,300611,,,A*5b
$GPVTG,,T,,M,,N,,K,A*23
$PADAC,,N,,E,,U,,N,,E,,U,,M,,H*52
$PADCP,,,,,,,*6a
$PADCV,,,,,,,*6c
$PADRA,0,001.403,0.00,0.00,0.00,0,P,0,000.045,0.00,0.00,0.00,9*34
$PADTI,426194.663770,1642,3,5,-1.499999963e+01,0.00e+00,6978,S,F1,00*56
$PADCL,-571.486,-458.247,C,-300.0,-300.0,D,8476,8587,I,3710,2888,R,0.00,T*0d
$PADCH,4,1,32,7,6,27,430,15,5,18,432,F0010007,71111117,01000000*15
$PADCH,4,2,32,21,429,14,11,31,22,24,8,070F000F,17171117,10000010*5d
$PADCH,4,3,32,32,4,9,16,12,2,13,26,00000000,11111113,00010011*67
$PADCH,4,4,32,425,434,428,435,426,431,438,436,00000700,11111711,11011001*5b
$PADST,FFFD03F3,000,3010,V,1,C,693,660,660,2640,272,N,39,0*4f
$PADES,0701C090,02000000,00000000,2AD49024*31
$PADAS,1FFFFFFF,FF800000,00000000,DFFFFFFE*39
$GPGGA,222300.663,4042.27402,N,07400.85420,W,0,00,3.8,261.26,M,-34.24,M,,0*52
$GPGSA,A,1,,,,,,,,,,,,,,,*1e
$GPGSV,8,1,32,07,,,44,06,,,,27,,,,430,,,*42
$GPGSV,8,2,32,15,,,,05,,,,18,,,,432,,,41*4a
$GPGSV,8,3,32,21,,,,429,,,41,14,,,,11,,,21*4c
$GPGSV,8,4,32,31,,,00,22,,,,24,,,,08,,,44*78
$GPGSV,8,5,32,32,,,,04,,,,09,,,,16,,,*7e
$GPGSV,8,6,32,12,,,,02,,,,13,,,,26,,,*71
$GPGSV,8,7,32,427,,,,434,,,,428,,,,435,,,*79
$GPGSV,8,8,32,426,,,,431,,,45,438,,,,436,,,*71
$GPGLL,0000.00000,N,00000.00000,E,222300.66,V*12
$GPRMC,222300.66,V,4042.27402,N,07400.85420,W,,,300611,,,A*56
$GPVTG,,T,,M,,N,,K,A*23
$PADAC,,N,,E,,U,,N,,E,,U,,M,,H*52
$PADCP,,,,,,,*6a
$PADCV,,,,,,,*6c
$PADRA,0,001.403,0.00,0.00,0.00,0,P,0,000.045,0.00,0.00,0.00,9*34
$PADTI,426195.663776,1642,3,6,-1.499999963e+01,0.00e+00,6988,S,12,00*29
$PADCL,-571.486,-458.247,C,-300.0,-300.0,D,8482,8587,I,3715,2888,R,0.00,T*03
$PADCH,4,1,32,7,6,27,430,15,5,18,432,F0010007,71111117,01000000*15
$PADCH,4,2,32,21,429,14,11,31,22,24,8,070F000F,17173117,10000010*5f
$PADCH,4,3,32,32,4,9,16,12,2,13,26,00000000,11111111,00010010*64
$PADCH,4,4,32,427,434,428,435,426,431,438,436,00000700,11111711,41011001*5c
$PADST,EFE903E7,000,3010,V,1,C,692,660,660,2640,272,N,39,0*34
$PADES,0701C090,02000000,00000000,2AD49024*31
$PADAS,1FFFFFFF,FF800000,00000000,DFFFFFFE*39
$GPGGA,222301.663,4042.27402,N,07400.85420,W,0,00,3.8,261.26,M,-34.24,M,,0*53
$GPGSA,A,1,,,,,,,,,,,,,,,*1e
$GPGSV,8,1,32,07,,,44,06,,,00,27,,,,430,,,*42
$GPGSV,8,2,32,15,,,,05,,,,18,,,,432,,$GPGGA,222427.664,4042.27924,N,07400.81233,W,1,07,3.5,29.71,M,-34.24,M,,0*69
$GPGSA,A,3,07,28,17,432,429,08,431,,,,,,5.0,3.5,3.5*08
$GPGSV,8,1,32,07,61,195,40,27,-22,334,,28,39,303,33,430,15,328,31*6c
$GPGSV,8,2,32,19,37,051,22,17,13,242,42,03,08,063,,432,57,158,43*4e
$GPGSV,8,3,32,435,43,032,,429,70,272,52,436,43,032,,11,64,122,*4b
$GPGSV,8,4,32,30,-27,114,,20,-6,154,,24,48,143,,08,69,275,45*48
$GPGSV,8,5,32,05,-30,278,,21,-35,012,,09,-38,339,,18,-7,014,*48
$GPGSV,8,6,32,16,-5,105,,06,-3,062,,10,-28,233,,26,15,305,*53
$GPGSV,8,7,32,425,02,152,,428,-2,086,,15,-2,336,,427,-57,215,*6a
$GPGSV,8,8,32,426,-1,152,,431,68,318,43,438,-2,352,,13,-3,196,*51
$GPGLL,0000.00000,N,00000.00000,E,222427.66,A*07
$GPRMC,222427.66,A,4042.27425,N,07400.81545,W,0.029,181.63,300611,,,A*76
$GPVTG,177.04,T,-0.005,M,0.033,N,0.061,K,A*39
$PADAC,43.18,N,60.26,E,7.28e+01,U,0.67,N,0.84,E,1.18e+00,U,1.08,M,6.28,H*52
$PADCP,4.66e+02,5.64e+02,9.08e+02,-6.65e+02,-9.64e+02,1.32e+03*4b
$PADCV,1.13e-01,1.08e-01,1.77e-01,-1.63e-01,-2.20e-01,3.49e-01*41
$PADRA,0,002.862,770.46,900.30,4.00,9,P,0,000.048,6.68,7.58,0.08,2*35
$PADTI,426282.664266,1642,3,1,-1.499999927e+01,0.00e+00,7858,S,E5,43*51
$PADCL,-573.362,-458.887,C,-300.0,-300.0,D,9042,9042,I,100,100,R,0.00,T*04
$PADCH,4,1,32,7,27,28,430,19,17,3,432,F0F70F07,F1F77F1F,10101111*2b
$PADCH,4,2,32,435,429,436,11,30,20,24,8,0702000F,1F11111F,11105011*2d
$PADCH,4,3,32,5,21,9,18,16,6,10,26,00000000,11111111,01001100*6b
$PADCH,4,4,32,425,428,15,427,426,431,438,13,00000700,11111F11,00041101*29
$PADST,EFE103FF,325,4317,V,1,C,682,660,660,2640,281,N,39,0*44
$PADES,0769C1F0,02000000,00000000,2AD590E4*37
$PADAS,1FFFFFFF,FF800000,00000000,FFFFFFFE*3b
$GPGGA,222428.664,4042.29985,N,07400.79671,W,1,06,5.3,-3.43,M,-34.24,M,,0*73
$GPGSA,A,3,07,17,432,429,08,431,,,,,,,7.4,5.3,5.1*06
$GPGSV,8,1,32,07,61,195,44,27,-22,334,,28,39,303,34,430,15,328,27*68
$GPGSV,8,2,32,19,37,051,,17,13,242,43,03,08,063,,432,57,158,42*4e
$GPGSV,8,3,32,435,43,032,,429,70,272,49,436,43,032,,11,64,122,*41
$GPGSV,8,4,32,30,-27,114,,20,-6,154,,24,48,143,,08,69,275,44*49
$GPGSV,8,5,32,05,-30,278,,21,-35,012,,09,-38,339,,18,-7,014,*48
$GPGSV,8,6,32,16,-5,105,,06,-3,062,,10,-28,233,,26,15,305,*53
$GPGSV,8,7,32,425,02,152,,428,-2,086,03,15,-2,336,,427,-57,215,*69
$GPGSV,8,8,32,426,-1,152,,431,68,318,42,438,-2,352,,01,,,*73
$GPGLL,0000.00000,N,00000.00000,E,222428.66,A*08
$GPRMC,222428.66,A,4042.27450,N,07400.81519,W,0.585,172.23,300611,,,A*79
$GPVTG,172.15,T,0.009,M,0.864,N,1.599,K,A*14
$PADAC,48.68,N,65.73,E,8.03e+01,U,0.72,N,0.86,E,1.23e+00,U,1.12,M,6.28,H*58
$PADCP,5.92e+02,7.10e+02,1.08e+03,-8.62e+02,-1.20e+03,1.61e+03*4f
$PADCV,1.30e-01,1.20e-01,1.85e-01,-1.86e-01,-2.37e-01,3.80e-01*4f
$PADRA,0,000.566,2077.62,6310.60,0.57,9,P,0,000.024,15.99,88.84,0.03,15*09
$PADTI,426283.664272,1642,3,3,-1.499999932e+01,0.00e+00,7868,S,F5,43*53
$PADCL,-573.449,-458.917,C,-300.0,-300.0,D,9046,9045,I,100,100,R,0.00,T*01
$PADCH,4,1,32,7,27,28,430,19,17,3,432,F0B70F07,F1771F1F,10100111*59
$PADCH,4,2,32,435,429,436,11,30,20,24,8,0702000F,1F11111F,11105011*2d
$PADCH,4,3,32,5,21,9,18,16,6,10,26,00000000,11111111,01001101*6a
$PADCH,4,4,32,425,428,15,427,426,431,438,1,00000700,13111F11,10041104*1c
$PADST,F7FB03E5,325,4317,V,0,C,696,660,660,2640,291,N,39,0*33
$PADES,0769C1F0,02000000,00000000,2AD590E4*37
$PADAS,1FFFFFFF,FF800000,00000000,FFFFFFFE*3b
$GPGGA,222429.664,4042.28648,N,07400.81533,W,1,05,5.6,51.06,M,-34.24,M,,0*62
$GPGSA,A,3,17,432,429,08,431,,,,,,,,7.9,5.6,5.6*0e
$GPGSV,8,1,32,07,61,195,44,27,-22,334,,28,39,303,29,430,15,328,28*6b
$GPGSV,8,2,32,19,37,051,,17,13,242,44,03,08,063,,432,56,158,43*49
$GPGSV,8,3,32,435,43,032,,429,70,272,44,436,43,032,,11,64,122,*4c
$GPGSV,8,4,32,30,-27,114,,20,-6,154,,24,48,143,,08,69,275,43*4e
$GPGSV,8,5,32,05,-30,278,,21,-35,012,,09,-38,339,,18,-7,014,*48
$GPGSV,8,6,32,16,-5,105,,06,-3,062,,10,-28,233,,26,15,305,*53
$GPGSV,8,7,32,425,02,152,,428,-2,086,,15,-2,336,,427,-57,215,*6a
$GPGSV,8,8,32,426,-1,152,,431,68,318,45,438,-2,352,,01,,,00*74
$GPGLL,0000.00000,N,00000.00000,E,222429.66,A*09
$GPRMC,222429.66,A,4042.27530,N,07400.81517,W,0.811,171.43,300611,,,A*74
$GPVTG,170.52,T,0.275,M,1.881,N,3.481,K,A*1c
$PADAC,52.10,N,61.19,E,7.83e+01,U,1.09,N,2.59,E,1.19e+01,U,2.82,M,6.28,H*5c
$PADCP,6.79e+02,6.49e+02,9.36e+02,-9.30e+02,-1.09e+03,1.53e+03*4c
$PADCV,3.00e-01,2.67e-01,1.68e+00,-5.10e-01,6.27e+00,3.53e+01*66
$PADRA,0,000.566,0.00,0.00,0.00,9,P,0,000.026,834.96,3698.81,0.03,5*09
$PADTI,426284.664278,1642,3,5,-1.499999934e+01,0.00e+00,7878,S,F5,43*5f
$PADCL,-573.389,-458.896,C,-300.0,-300.0,D,9044,9044,I,100,100,R,0.00,T*01
$PADCH,4,1,32,7,27,28,430,19,17,3,432,F0B70F07,71771F1F,10101111*29
$PADCH,4,2,32,435,429,436,11,30,20,24,8,0702000F,1F01111F,11005011*2d
$PADCH,4,3,32,5,21,9,18,16,6,10,26,00000000,11111111,01001101*6a
$PADCH,4,4,32,425,428,15,427,426,431,438,1,00000700,11111F13,10041104*1c
$PADST,F7FF03E1,325,4317,V,0,C,674,660,660,2640,285,N,39,0*3a
$PADES,0769C1F0,02000000,00000000,2AD590E4*37
$PADAS,1FFFFFFF,FF800000,00000000,FFFFFFFE*3b
$GPGGA,222430.664,4042.28540,N,07400.80740,W,1,06,5.3,41.30,M,-34.24,M,,0*64
$GPGSA,A,3,07,17,432,429,08,431,,,,,,,7.4,5.3,5.1*06
$GPGSV,8,1,32,07,61,195,41,27,-22,334,,28,39,303,26,430,15,328,27*6e
$GPGSV,8,2,32,19,37,051,,17,13,242,41,03,08,063,,432,56,158,42*4d
$GPGSV,8,3,32,435,43,032,,429,70,272,41,436,43,032,,11,64,122,*49
$GPGSV,8,4,32,30,-27,114,,20,-6,154,,24,48,143,,08,69,275,43*4e
$GPGSV,8,5,32,05,-30,278,,21,-35,012,,09,-38,339,,18,-7,014,*48
$GPGSV,8,6,32,16,-5,105,,06,-3,062,,10,-28,233,,26,15,305,*53
$GPGSV,8,7,32,425,02,152,,428,-2,086,,13,-3,196,,427,-57,215,*65
$GPGSV,8,8,32,426,-1,152,,431,68,318,42,433,04,038,,01,,,*6c
$GPGLL,0000.00000,N,00000.00000,E,222430.66,A*01
$GPRMC,222430.66,A,4042.27561,N,07400.81472,W,0.858,170.69,300611,,,A*7e
$GPVTG,171.43,T,0.451,M,2.185,N,4.042,K,A*1f
$PADAC,46.45,N,61.60,E,7.34e+01,U,5.27,N,6.86,E,1.16e+01,U,8.65,M,6.28,H*59
$PADCP,5.39e+02,6.27e+02,9.49e+02,-7.66e+02,-1.07e+03,1.35e+03*48
$PADCV,6.95e+00,8.98e+00,1.18e+01,-1.51e+01,-1.94e+01,3.39e+01*4b
$PADRA,0,000.950,2101.61,6207.85,0.95,7,P,0,000.043,237.81,1132.72,0.06,15*38
$PADTI,426285.664283,1642,3,6,-1.499999927e+01,0.00e+00,7888,S,11,43*27
$PADCL,-573.454,-458.918,C,-300.0,-300.0,D,9049,9049,I,100,100,R,0.00,T*01
$PADCH,4,1,32,7,27,28,430,19,17,3,432,F0B70F07,F1771F1F,10101111*58
$PADCH,4,2,32,435,429,436,11,30,20,24,8,0702000F,1F11111F,11105011*2d
$PADCH,4,3,32,5,21,9,18,16,6,10,26,00000000,11111111,01001101*6a
$PADCH,4,4,32,425,428,13,427,426,431,433,1,00000700,11111F11,10141104*12
$PADST,E7EF03F7,325,4317,V,0,C,694,660,660,2640,293,N,39,0*36
$PADES,0769C1F0,02000000,00000000,2AD590E4*37
$PADAS,1FFFFFFF,FF800000,00000000,FFFFFFFE*3b
$GPGGA,222431.664,4042.29007,N,07400.78587,W,1,05,6.0,98.06,M,-34.24,M,,0*6e
$GPGSA,A,2,07,432,429,08,431,,,,,,,,6.0,6.0,0.0*00
$GPGSV,8,1,32,07,61,194,43,27,-22,334,,28,39,303,29,430,15,328,28*6d
$GPGSV,8,2,32,19,37,051,,17,13,242,41,03,08,063,,432,56,158,42*4d
$GPGSV,8,3,32,435,43,032,,429,70,272,42,436,43,032,,11,64,122,*4a
$GPGSV,8,4,32,30,-27,114,,20,-6,154,,24,48,143,,08,69,275,42*4f
$GPGSV,8,5,32,12,-62,269,,21,-35,012,,09,-38,339,,18,-7,014,*49
$GPGSV,8,6,32,23,-17,172,,06,-3,062,,10,-28,233,,26,15,305,*66
$GPGSV,8,7,32,434,-5,045,,428,-2,086,07,13,-3,196,,427,-57,215,*7f
$GPGSV,8,8,32,426,-1,152,,431,68,318,41,433,04,038,,01,,,*6f
$GPGLL,0000.00000,N,00000.00000,E,222431.66,A*00
$GPRMC,222431.66,A,4042.27554,N,07400.81381,W,1.647,171.69,300611,,,A*72
$GPVTG,172.51,T,0.000,M,2.044,N,3.783,K,A*1e
$PADAC,45.40,N,74.79,E,2.00e+06,U,0.77,N,1.24,E,2.19e+06,U,1.46,M,6.28,H*5a
$PADCP,5.15e+02,7.50e+02,1.40e+03,1.00e+12,1.00e+12,1.00e+12*41
$PADCV,1.48e-01,1.83e-01,3.82e-01,1.20e+12,1.20e+12,1.20e+12*49
$PADRA,0,000.950,0.00,0.00,0.00,7,P,0,000.043,0.00,0.00,0.00,15*02
$PADTI,426286.664289,1642,3,8,-1.499999933e+01,0.00e+00,7898,S,11,43*24
$PADCL,-573.444,-458.915,C,-300.0,-300.0,D,9046,9045,I,100,100,R,0.00,T*0e
$PADCH,4,1,32,7,27,28,430,19,17,3,432,F0F70B07,F177171F,10101111*29
$PADCH,4,2,32,435,429,436,11,30,20,24,8,0702000F,1F11111F,11105011*2d
$PADCH,4,3,32,12,21,9,18,23,6,10,26,00000000,11111111,01001101*5a
$PADCH,4,4,32,434,428,13,427,426,431,433,1,00000700,13111F11,10141104*10
$PADST,E7E303FB,225,4317,V,0,C,672,660,660,2640,285,N,39,0*38
$PADES,0769C1F0,02000000,00000000,2AD590E4*37
$PADAS,1FFFFFFF,FF800000,00000000,FFFFFFFE*3b
$GPGGA,222432.664,4042.29225,N,07400.78133,W,1,06,6.0,111.32,M,-34.24,M,,0*50
$GPGSA,A,3,07,28,432,429,08,431,,,,,,,7.4,6.0,4.3*09
$GPGSV,8,1,32,07,61,194,43,25,-81,201,,28,39,303,29,430,15,328,28*61
$GPGSV,8,2,32,19,37,051,,17,13,242,37,03,08,063,,432,56,158,42*4c
$GPGSV,8,3,32,435,43,032,,429,70,272,46,436,43,032,,11,64,122,*4e
$GPGSV,8,4,32,30,-27,114,,20,-6,154,,24,48,142,,08,69,275,43*4f
$GPGSV,8,5,32,12,-62,269,,21,-35,012,,09,-38,339,,18,-7,014,*49
$GPGSV,8,6,32,23,-17,172,,32,-5,130,,22,-0,044,,26,15,305,*58
$GPGSV,8,7,32,434,-5,045,,428,-2,086,,13,-3,196,,427,-57,215,*78
$GPGSV,8,8,32,426,-1,152,,431,68,318,41,433,04,038,,01,,,*6f
$GPGLL,0000.00000,N,00000.00000,E,222432.66,A*03
$GPRMC,222432.66,A,4042.27555,N,07400.81272,W,1.774,165.73,300611,,,A*72
$GPVTG,151.34,T,1.385,M,2.521,N,4.665,K,A*1b
$PADAC,45.23,N,82.23,E,2.15e+02,U,0.99,N,3.02,E,1.87e+01,U,3.18,M,6.28,H*55
$PADCP,5.11e+02,7.17e+02,1.69e+03,-1.48e+02,1.91e+03,1.16e+04*65
$PADCV,2.46e-01,-3.62e-01,2.28e+00,-3.32e+00,1.33e+01,8.75e+01*46
$PADRA,0,001.040,1916.21,6323.47,1.04,9,P,0,000.286,17.84,68.97,0.40,2*38
$PADTI,426287.664294,1642,3,10,-1.499999933e+01,0.00e+00,7908,S,21,43*1b
$PADCL,-573.178,-458.824,C,-300.0,-300.0,D,9044,9043,I,100,100,R,0.00,T*03
$PADCH,4,1,32,7,25,28,430,19,17,3,432,F0F70F07,F0F7071F,10100111*5f
$PADCH,4,2,32,435,429,436,11,30,20,24,8,0702000F,1F11111F,11105011*2d
$PADCH,4,3,32,12,21,9,18,23,32,22,26,00000000,11111111,01001001*6d
$PADCH,4,4,32,434,428,13,427,426,431,433,1,00000700,11111F11,10041104*13
$PADST,EFED03EF,325,4317,V,0,C,681,660,660,2640,284,N,39,0*35
$PADES,0769C1F0,02000000,00000000,2AD590E4*37
$PADAS,1FFFFFFF,FF800000,00000000,FFFFFFFE*3b
$GPGGA,222433.664,4042.25816,N,07400.84372,W,1,07,3.5,96.31,M,-34.24,M,,0*6f
$GPGSA,A,3,07,28,17,432,429,08,431,,,,,,5.0,3.5,3.5*08
$GPGSV,8,1,32,07,61,194,43,25,-81,201,,28,39,303,31,430,15,328,28*68
$GPGSV,8,2,32,19,37,051,,17,13,242,41,03,08,063,,432,56,158,42*4d
$GPGSV,8,3,32,435,43,032,,429,70,272,47,436,43,032,,11,64,122,*4f
$GPGSV,8,4,32,30,-27,114,,20,-6,154,,24,48,142,,08,69,275,43*4f
$GPGSV,8,5,32,12,-62,269,,21,-35,012,,09,-38,339,,18,-7,014,*49
$GPGSV,8,6,32,23,-17,172,,32,-5,130,,22,-0,044,,26,15,305,*58
$GPGSV,8,7,32,434,-5,045,,428,-2,086,03,13,-3,196,,427,-57,215,*7b
$GPGSV,8,8,32,426,-1,152,,431,68,318,42,433,04,038,,01,,,*6c
$GPGLL,0000.00000,N,00000.00000,E,222433.66,A*02
$GPRMC,222433.66,A,4042.27364,N,07400.81504,W,2.029,167.76,300611,,,A*7a
$GPVTG,161.76,T,0.922,M,2.920,N,5.404,K,A*11
$PADAC,27.31,N,47.82,E,5.36e+01,U,1.81,N,3.41,E,1.80e+01,U,3.87,M,6.28,H*5b
$PADCP,1.86e+02,2.61e+02,5.72e+02,-2.93e+02,-5.84e+02,7.17e+02*4c
$PADCV,8.21e-01,2.26e-01,2.91e+00,-3.84e+00,1.09e+01,8.07e+01*62
$PADRA,0,002.124,275.30,297.70,2.99,2,P,0,000.520,11.38,62.82,0.85,9*31
$PADTI,426288.664300,1642,4,1,-1.499999924e+01,0.00e+00,7918,S,21,43*28
$PADCL,-573.330,-458.876,C,-300.0,-300.0,D,9046,9045,I,100,100,R,0.00,T*0e
$PADCH,4,1,32,7,25,28,430,19,17,3,432,F0F70F07,F1F71F1F,10101111*2f
$PADCH,4,2,32,435,429,436,11,30,20,24,8,0702000F,1F11111F,11105011*2d
$PADCH,4,3,32,12,21,9,18,23,32,22,26,00000000,11111111,01001001*6d
$PADCH,4,4,32,434,428,13,427,426,431,433,1,00000700,13111F11,10141104*10
$PADST,EFE103FB,325,4317,V,0,C,695,660,660,2640,287,N,39,0*41
$PADES,0769C1F0,02000000,00000000,2AD590E4*37
$PADAS,1FFFFFFF,FF800000,00000000,FFFFFFFE*3b
$GPGGA,222434.664,4042.28345,N,07400.77999,W,1,06,6.0,238.21,M,-34.24,M,,0*5d
$GPGSA,A,3,07,28,432,429,08,431,,,,,,,7.4,6.0,4.3*09
$GPGSV,8,1,32,07,61,194,44,25,-81,201,,28,39,303,31,430,15,328,25*62
$GPGSV,8,2,32,19,37,051,,17,13,242,39,03,08,063,,432,56,158,42*42
$GPGSV,8,3,32,435,43,032,,429,70,272,47,436,43,032,,11,64,122,*4f
$GPGSV,8,4,32,30,-27,114,,20,-6,154,,24,48,142,,08,69,275,42*4e
$GPGSV,8,5,32,12,-62,269,,21,-35,012,,09,-38,339,,18,-7,014,*49
$GPGSV,8,6,32,23,-17,172,,32,-5,130,,22,-0,044,,26,15,305,*58
$GPGSV,8,7,32,434,-5,045,,428,-2,086,,13,-3,196,,427,-57,215,*78
$GPGSV,8,8,32,426,-1,152,,431,68,318,44,433,04,038,,01,,,*6a
$GPGLL,0000.00000,N,00000.00000,E,222434.66,A*05
$GPRMC,222434.66,A,4042.27334,N,07400.81360,W,2.321,165.56,300611,,,A*77
$GPVTG,166.15,T,-1.340,M,3.238,N,5.992,K,A*30
$PADAC,44.95,N,72.25,E,6.29e+01,U,0.98,N,3.09,E,1.86e+01,U,3.24,M,6.28,H*5c
$PADCP,5.05e+02,7.47e+02,1.31e+03,2.83e+01,-9.46e+01,9.90e+02*6f
$PADCV,2.40e-01,-3.52e-01,2.38e+00,-3.24e+00,1.34e+01,8.69e+01*4f
$PADRA,0,000.315,1918.55,6361.75,0.31,0,P,0,000.024,27.48,89.98,0.03,0*32
$PADTI,426289.664305,1642,4,3,-1.499999932e+01,0.00e+00,7928,S,31,43*2b
$PADCL,-573.755,-459.021,C,-300.0,-300.0,D,9050,9049,I,100,100,R,0.00,T*09
$PADCH,4,1,32,7,25,28,430,19,17,3,432,F0F70F07,F1F7171F,10101111*5e
$PADCH,4,2,32,435,429,436,11,30,20,24,8,0702000F,1F11111F,11105011*2d
$PADCH,4,3,32,12,21,9,18,23,32,22,26,00000000,11111111,01001001*6d
$PADCH,4,4,32,434,428,13,427,426,431,433,1,00000700,11111F11,10141104*12
$PADST,F7FF03EB,325,4317,V,0,C,699,660,660,2640,275,N,39,0*45
$PADES,0769C1F0,02000000,00000000,2AD590E4*37
$PADAS,1FFFFFFF,FF800000,00000000,FFFFFFFE*3b
$GPGGA,222435.664,4042.28364,N,07400.80838,W,1,06,5.4,33.99,M,-34.24,M,,0*60
$GPGSA,A,3,07,17,432,429,08,431,,,,,,,7.4,5.4,5.1*01
$GPGSV,8,1,32,07,61,194,44,25,-81,201,,28,39,303,32,430,15,328,27*63
$GPGSV,8,2,32,19,37,051,,17,13,242,38,03,08,063,,432,56,159,43*43
$GPGSV,8,3,32,435,43,032,,429,70,272,45,436,43,032,,11,64,122,*4d
$GPGSV,8,4,32,29,-79,085,,20,-6,154,,24,48,142,,08,69,275,44*42
$GPGSV,8,5,32,12,-62,269,,04,-26,213,,09,-38,339,,31,-55,131,*75
$GPGSV,8,6,32,23,-17,172,,32,-5,130,,22,-0,044,,26,15,305,*58
$GPGSV,8,7,32,434,-5,045,,428,-2,086,04,13,-3,196,,427,-57,215,*7c
$GPGSV,8,8,32,426,-1,152,,431,68,318,47,433,04,038,,01,,,*69
$GPGLL,0000.00000,N,00000.00000,E,222435.66,A*04
$GPRMC,222435.66,A,4042.27308,N,07400.81305,W,2.701,163.83,300611,,,A*72
$GPVTG,162.15,T,3.108,M,4.277,N,7.915,K,A*14
$PADAC,46.00,N,61.05,E,7.28e+01,U,1.53,N,3.50,E,2.03e+01,U,3.82,M,6.28,H*5a
$PADCP,5.29e+02,6.15e+02,9.32e+02,-7.51e+02,-1.05e+03,1.32e+03*45
$PADCV,5.87e-01,-1.57e-01,3.07e+00,-4.36e+00,1.48e+01,1.03e+02*40
$PADRA,0,000.135,2081.61,6314.56,0.13,15,P,0,000.764,14.32,79.28,1.08,9*01
$PADTI,426290.664312,1642,4,5,-1.499999930e+01,0.00e+00,7938,S,31,43*20
$PADCL,-573.069,-458.787,C,-300.0,-300.0,D,9049,9048,I,100,100,R,0.00,T*02
$PADCH,4,1,32,7,25,28,430,19,17,3,432,F0B70F07,F1771F1F,10101111*5a
$PADCH,4,2,32,435,429,436,11,29,20,24,8,0702000F,1F11111F,11100011*20
$PADCH,4,3,32,12,4,9,31,23,32,22,26,00000000,11111111,00001001*50
$PADCH,4,4,32,434,428,13,427,426,431,433,1,00000700,13111F11,10141104*10
$PADST,FFFD03F7,325,4317,V,0,C,679,660,660,2640,266,N,39,0*4c
$PADES,0769C1F0,02000000,00000000,2AD590E4*37
$PADAS,1FFFFFFF,FF800000,00000000,FFFFFFFE*3b
$GPGGA,222436.664,4042.26100,N,07400.84058,W,1,07,3.5,74.91,M,-34.24,M,,0*6a
$GPGSA,A,3,07,28,17,432,429,08,431,,,,,,5.0,3.5,3.5*08
$GPGSV,8,1,32,07,61,194,44,25,-81,202,,28,39,303,35,430,15,328,27*67
$GPGSV,8,2,32,19,37,051,,17,13,242,38,03,08,063,,432,56,159,43*43
$GPGSV,8,3,32,435,43,032,,429,70,272,47,436,43,032,,11,64,122,*4f
$GPGSV,8,4,32,29,-79,085,,20,-6,154,,24,48,142,,08,69,275,42*44
$GPGSV,8,5,32,12,-62,269,,04,-26,213,,09,-38,339,,31,-55,131,*75
$GPGSV,8,6,32,23,-17,172,,32,-5,130,,22,-0,044,,26,15,305,*58
$GPGSV,8,7,32,438,-2,352,,428,-2,086,,13,-3,196,,427,-57,215,*76
$GPGSV,8,8,32,426,-1,152,,431,68,318,43,437,-15,314,,425,02,152,*4f
$GPGLL,0000.00000,N,00000.00000,E,222436.66,A*07
$GPRMC,222436.66,A,4042.27134,N,07400.81499,W,2.974,168.44,300611,,,A*72
$GPVTG,167.75,T,-1.654,M,3.367,N,6.231,K,A*3d
$PADAC,25.40,N,47.07,E,5.22e+01,U,1.13,N,2.60,E,1.50e+01,U,2.83,M,6.28,H*56
$PADCP,1.61e+02,2.37e+02,5.54e+02,-2.59e+02,-5.54e+02,6.81e+02*47
$PADCV,3.18e-01,-8.67e-02,1.69e+00,-2.36e+00,8.18e+00,5.62e+01*48
$PADRA,0,002.099,282.60,296.88,2.97,9,P,0,000.323,9.85,54.32,0.40,5*09
$PADTI,426291.664317,1642,4,6,-1.499999925e+01,0.00e+00,7948,S,41,43*23
$PADCL,-573.696,-459.001,C,-300.0,-300.0,D,9048,9045,I,100,100,R,0.00,T*00
$PADCH,4,1,32,7,25,28,430,19,17,3,432,F0F70F07,F1F71F1F,10101111*2f
$PADCH,4,2,32,435,429,436,11,29,20,24,8,0702000F,1F11111F,11100011*20
$PADCH,4,3,32,12,4,9,31,23,32,22,26,00000000,11111111,00001001*50
$PADCH,4,4,32,438,428,13,427,426,431,437,425,00000700,11111F11,00141101*1c
$PADST,EBE803E0,325,4317,V,0,C,679,660,660,2640,259,N,39,0*3c
$PADES,0769C1F0,02000000,00000000,2AD590E4*37
$PADAS,1FFFFFFF,FF800000,00000000,FFFFFFFE*3b
$GPGGA,222437.664,4042.28032,N,07400.79972,W,1,05,6.1,104.45,M,-34.24,M,,0*5a
$GPGSA,A,2,07,432,429,08,431,,,,,,,,6.1,6.1,0.0*00
$GPGSV,8,1,32,07,61,194,45,25,-81,202,,28,39,303,37,430,15,328,28*6b
$GPGSV,8,2,32,19,37,051,,17,13,242,37,03,08,063,,432,56,159,44*4b
$GPGSV,8,3,32,435,43,032,,429,70,272,48,436,43,032,,11,64,122,*40
$GPGSV,8,4,32,29,-79,085,,20,-6,154,,24,48,142,,08,69,275,44*42
$GPGSV,8,5,32,12,-62,269,,04,-26,213,,09,-38,339,,31,-55,131,*75
$GPGSV,8,6,32,23,-17,172,,32,-5,130,,22,-0,044,,26,15,305,*58
$GPGSV,8,7,32,438,-2,352,,428,-2,086,,433,04,038,,427,-57,215,*5f
$GPGSV,8,8,32,426,-1,152,,431,68,318,49,437,-15,314,,425,02,152,*45
$GPGLL,0000.00000,N,00000.00000,E,222437.66,A*06
$GPRMC,222437.66,A,4042.27038,N,07400.81427,W,3.787,169.04,300611,,,A*7d
$GPVTG,169.39,T,0.000,M,4.049,N,7.493,K,A*17
$PADAC,44.83,N,74.12,E,2.00e+06,U,0.67,N,1.02,E,2.00e+06,U,1.22,M,0.63,H*5f
$PADCP,5.02e+02,7.34e+02,1.37e+03,1.00e+12,1.00e+12,1.00e+12*45
$PADCV,1.13e-01,1.34e-01,2.62e-01,1.00e+12,1.00e+12,1.00e+12*46
$PADRA,0,002.099,0.00,0.00,0.00,9,P,0,000.323,0.00,0.00,0.00,5*36
$PADTI,426292.664323,1642,4,8,-1.499999931e+01,0.00e+00,7958,S,41,43*2d
$PADCL,-573.500,-458.934,C,-300.0,-300.0,D,9049,9047,I,100,100,R,0.00,T*01
$PADCH,4,1,32,7,25,28,430,19,17,3,432,F0F70B07,F177171F,10101111*2b
$PADCH,4,2,32,435,429,436,11,29,20,24,8,0702000F,1F01111F,11000011*20
$PADCH,4,3,32,12,4,9,31,23,32,22,26,00000000,11111111,00001001*50
$PADCH,4,4,32,438,428,433,427,426,431,437,425,00000700,11111F11,00041101*2b
$PADST,F7FF03F9,225,4317,V,0,C,660,660,660,2640,262,N,39,0*3c
$PADES,0769C1F0,02000000,00000000,2AD590E4*37
$PADAS,1FFFFFFF,FF800000,00000000,FFFFFFFE*3b
$GPGGA,222438.664,4042.27488,N,07400.81585,W,1,06,6.0,104.72,M,-34.24,M,,0*5a
$GPGSA,A,3,07,28,432,429,08,431,,,,,,,7.4,6.0,4.3*09
$GPGSV,8,1,32,07,61,194,45,25,-81,202,,28,39,303,40,430,15,328,27*64
$GPGSV,8,2,32,19,37,051,,17,13,242,34,03,08,063,,432,56,159,43*4f
$GPGSV,8,3,32,435,43,032,,429,70,272,46,436,43,032,,11,64,122,*4e
$GPGSV,8,4,32,29,-79,085,,20,-6,154,,24,48,142,,08,69,275,45*43
$GPGSV,8,5,32,12,-62,269,,04,-26,213,,09,-38,339,,31,-55,131,*75
$GPGSV,8,6,32,23,-17,172,,32,-5,130,,14,-40,062,,26,15,305,*6d
$GPGSV,8,7,32,438,-2,352,,428,-2,086,03,433,04,038,,427,-57,215,*5c
$GPGSV,8,8,32,426,-1,152,,431,68,318,49,437,-15,314,,425,02,152,*45
$GPGLL,0000.00000,N,00000.00000,E,222438.66,A*09
$GPRMC,222438.66,A,4042.26949,N,07400.81410,W,3.860,170.49,300611,,,A*7f
$GPVTG,173.49,T,-0.070,M,4.050,N,7.495,K,A*3f
$PADAC,44.88,N,72.21,E,5.66e+01,U,0.81,N,1.99,E,1.15e+01,U,2.15,M,6.28,H*56
$PADCP,5.04e+02,7.48e+02,1.30e+03,2.65e+01,-1.32e+02,8.01e+02*69
$PADCV,1.62e-01,-5.43e-02,9.95e-01,-1.26e+00,4.90e+00,3.28e+01*46
$PADRA,0,000.062,1904.57,6307.12,0.06,7,P,0,000.126,13.99,77.75,0.18,2*3e
$PADTI,426293.664329,1642,4,10,-1.499999930e+01,0.00e+00,7968,S,51,43*1c
$PADCL,-573.566,-458.957,C,-300.0,-300.0,D,9049,9048,I,100,100,R,0.00,T*0b
$PADCH,4,1,32,7,25,28,430,19,17,3,432,F0F70B07,F1F7171F,10101111*5a
$PADCH,4,2,32,435,429,436,11,29,20,24,8,0702000F,1F11111F,11100011*20
$PADCH,4,3,32,12,4,9,31,23,32,14,26,00000000,11111111,00001001*55
$PADCH,4,4,32,438,428,433,427,426,431,437,425,00000700,13111F11,00041101*29
$PADST,EFE103F7,325,4317,V,0,C,661,660,660,2640,264,N,39,0*32
$PADES,0769C1F0,02000000,00000000,2AD590E4*37
$PADAS,1FFFFFFF,FF800000,00000000,FFFFFFFE*3b
$GPGGA,222439.664,4042.27531,N,07400.80901,W,1,05,6.1,105.06,M,-34.24,M,,0*59
$GPGSA,A,2,07,432,429,08,431,,,,,,,,6.1,6.1,0.0*00
$GPGSV,8,1,32,07,61,194,44,15,-2,336,,28,39,303,40,430,15,328,26*5a
$GPGSV,8,2,32,19,37,051,,17,13,242,32,03,08,063,,432,56,159,43*49
$GPGSV,8,3,32,435,43,032,,429,70,272,46,436,43,032,,11,64,121,*4d
$GPGSV,8,4,32,29,-79,085,,02,-51,233,,24,48,142,,08,69,275,42*74
$GPGSV,8,5,32,12,-62,269,,04,-26,213,,16,-5,105,,31,-55,131,*48
$GPGSV,8,6,32,23,-17,172,,32,-5,130,,14,-40,062,,26,15,305,*6d
$GPGSV,8,7,32,438,-2,352,,428,-2,086,,433,04,038,,427,-57,215,*5f
$GPGSV,8,8,32,434,-5,045,,431,68,318,49,437,-15,314,,425,02,152,*45
$GPGLL,0000.00000,N,00000.00000,E,222439.66,A*08
$GPRMC,222439.66,A,4042.26875,N,07400.81378,W,3.442,170.65,300611,,,A*7b
$GPVTG,170.79,T,0.000,M,3.249,N,6.012,K,A*12
$PADAC,45.02,N,74.43,E,2.00e+06,U,0.67,N,1.03,E,2.00e+06,U,1.23,M,0.83,H*5d
$PADCP,5.07e+02,7.40e+02,1.38e+03,1.00e+12,1.00e+12,1.00e+12*4c
$PADCV,1.14e-01,1.35e-01,2.64e-01,1.00e+12,1.00e+12,1.00e+12*46
$PADRA,0,000.062,0.00,0.00,0.00,7,P,0,000.126,0.00,0.00,0.00,2*3e
$PADTI,426294.664334,1642,5,1,-1.499999931e+01,0.00e+00,7978,S,51,43*26
$PADCL,-573.558,-458.954,C,-300.0,-300.0,D,9050,9049,I,100,100,R,0.00,T*0c
$PADCH,4,1,32,7,15,28,430,19,17,3,432,F0F70B07,F177171F,10101111*28
$PADCH,4,2,32,435,429,436,11,29,2,24,8,0702000F,1F11111F,11100011*10
$PADCH,4,3,32,12,4,16,31,23,32,14,26,00000000,11111111,00101001*6a
$PADCH,4,4,32,438,428,433,427,434,431,437,425,00000700,11111F11,00041101*28
$PADST,F7FB03E1,225,4317,V,0,C,686,660,660,2640,265,N,39,0*3c
$PADES,0769C1F0,02000000,00000000,2AD590E4*37
$PADAS,1FFFFFFF,FF800000,00000000,FFFFFFFE*3b
$GPGGA,222440.664,4042.27999,N,07400.80312,W,1,05,6.1,105.06,M,-34.24,M,,0*51
$GPGSA,A,2,07,432,429,08,431,,,,,,,,6.1,6.1,0.0*00
$GPGSV,8,1,32,07,61,194,45,15,-2,336,,28,39,303,39,430,15,328,25*56
$GPGSV,8,2,32,19,37,051,,17,13,242,32,03,08,063,,432,56,159,42*48
$GPGSV,8,3,32,435,43,032,,429,70,272,46,436,43,032,,11,64,121,*4d
$GPGSV,8,4,32,29,-79,085,,02,-51,233,,24,48,142,,08,69,275,42*74
$GPGSV,8,5,32,12,-62,269,,04,-26,213,,16,-5,105,,31,-55,131,*48
$GPGSV,8,6,32,23,-17,172,,10,-28,233,,14,-40,062,,26,15,305,*52
$GPGSV,8,7,32,05,-30,278,,428,-2,086,,433,04,038,,427,-57,215,*5d
$GPGSV,8,8,32,434,-5,045,,431,68,318,49,426,-1,152,,425,02,152,*70
$GPGLL,0000.00000,N,00000.00000,E,222440.66,A*06
$GPRMC,222440.66,A,4042.26834,N,07400.81334,W,2.604,170.10,300611,,,A*7b
$GPVTG,169.69,T,0.000,M,2.089,N,3.865,K,A*19
$PADAC,45.07,N,74.54,E,2.00e+06,U,0.67,N,1.03,E,2.00e+06,U,1.23,M,6.28,H*59
$PADCP,5.08e+02,7.42e+02,1.39e+03,1.00e+12,1.00e+12,1.00e+12*40
$PADCV,1.14e-01,1.35e-01,2.66e-01,1.00e+12,1.00e+12,1.00e+12*44
$PADRA,0,000.062,0.00,0.00,0.00,7,P,0,000.126,0.00,0.00,0.00,2*3e
$PADTI,426295.664340,1642,5,3,-1.499999932e+01,0.00e+00,7988,S,61,43*29
$PADCL,-573.529,-458.944,C,-300.0,-300.0,D,9049,9047,I,100,100,R,0.00,T*0d
$PADCH,4,1,32,7,15,28,430,19,17,3,432,F0B70B07,F177171F,10101111*2c
$PADCH,4,2,32,435,429,436,11,29,2,24,8,0702000F$GPGGA,222441.664,4042.27314,N,07400.81278,W,1,06,6.1,87.14,M,-34.24,M,,0*68
$GPGSA,A,3,07,28,432,429,08,431,,,,,,,7.4,6.1,4.3*08
$GPGSV,8,1,32,07,61,194,45,15,-2,336,,28,39,303,40,430,15,328,23*5e
$GPGSV,8,2,32,19,37,051,,17,13,242,,03,08,063,,432,56,159,42*49
$GPGSV,8,3,32,435,43,032,,429,70,272,43,436,43,032,,11,64,121,*48
$GPGSV,8,4,32,29,-79,086,,02,-51,233,,24,48,142,,08,69,275,41*74
$GPGSV,8,5,32,12,-62,269,,04,-26,213,,16,-5,105,,31,-55,131,*48
$GPGSV,8,6,32,23,-17,172,,10,-28,233,,14,-40,062,01,26,15,305,*53
$GPGSV,8,7,32,05,-30,278,,428,-2,086,04,433,04,038,,427,-57,215,*59
$GPGSV,8,8,32,434,-5,045,,431,68,318,48,426,-1,152,,425,02,152,*71
$GPGLL,0000.00000,N,00000.00000,E,222441.66,A*07
$GPRMC,222441.66,A,4042.26786,N,07400.81319,W,2.243,170.84,300611,,,A*79
$GPVTG,186.45,T,-0.473,M,0.604,N,1.117,K,A*34
$PADAC,45.30,N,72.94,E,5.69e+01,U,0.95,N,2.78,E,1.70e+01,U,2.94,M,6.28,H*56
$PADCP,5.13e+02,7.64e+02,1.33e+03,2.88e+01,-1.33e+02,8.11e+02*61
$PADCV,2.24e-01,-2.92e-01,1.93e+00,-2.82e+00,1.10e+01,7.23e+01*48
$PADRA,0,000.409,1920.23,6372.75,0.41,9,P,0,000.049,15.25,63.93,0.07,15*00
$PADTI,426296.664346,1642,5,5,-1.499999927e+01,0.00e+00,7998,S,61,43*2f
$PADCL,-573.589,-458.964,C,-300.0,-300.0,D,9047,9047,I,100,100,R,0.00,T*0b
$PADCH,4,1,32,7,15,28,430,19,17,3,432,F0F70007,F1F7111F,10101011*2c
$PADCH,4,2,32,435,429,436,11,29,2,24,8,0702000F,1F11111F,11100011*10
$PADCH,4,3,32,12,4,16,31,23,10,14,26,00000000,11111131,00101001*68
$PADCH,4,4,32,5,428,433,427,434,431,426,425,00000700,13111F11,00041111*21
$PADST,FFF903EF,325,4317,V,0,C,684,660,660,2640,265,N,39,0*42
$PADES,0769C1F0,02000000,00000000,2AD590E4*37
$PADAS,1FFFFFFF,FF800000,00000000,FFFFFFFE*3b
$GPGGA,222442.664,4042.27231,N,07400.81323,W,1,06,6.1,94.57,M,-34.24,M,,0*67
$GPGSA,A,3,07,28,432,429,08,431,,,,,,,7.4,6.1,4.3*08
$GPGSV,8,1,32,07,61,194,44,15,-2,336,,28,39,303,44,430,15,328,23*5b
$GPGSV,8,2,32,19,37,051,,17,13,242,03,03,08,063,,432,56,159,43*4b
$GPGSV,8,3,32,435,43,032,,429,70,272,44,436,43,032,,11,64,121,*4f
$GPGSV,8,4,32,29,-79,086,,02,-51,233,00,24,48,142,,08,69,275,38*7a
$GPGSV,8,5,32,12,-62,269,,04,-26,213,,16,-5,105,,31,-55,131,*48
$GPGSV,8,6,32,23,-17,172,,10,-28,233,,14,-40,062,16,26,15,305,*55
$GPGSV,8,7,32,05,-30,278,,428,-2,086,,433,04,038,,437,-15,314,*5a
$GPGSV,8,8,32,434,-5,045,,431,68,318,47,426,-1,152,,425,02,152,*7e
$GPGLL,0000.00000,N,00000.00000,E,222442.66,A*04
$GPRMC,222442.66,A,4042.26772,N,07400.81314,W,0.643,168.83,300611,,,A*74
$GPVTG,101.93,T,-0.073,M,0.034,N,0.062,K,A*33
$PADAC,45.41,N,72.87,E,5.71e+01,U,0.68,N,0.97,E,1.22e+00,U,1.18,M,6.28,H*5b
$PADCP,5.16e+02,7.65e+02,1.33e+03,4.00e+01,-1.22e+02,8.15e+02*67
$PADCV,1.16e-01,1.39e-01,2.33e-01,-2.25e-02,-9.31e-02,3.74e-01*41
$PADRA,0,000.679,1947.08,6473.77,0.68,2,P,0,000.037,16.06,88.98,0.05,9*33
$PADTI,426297.664351,1642,5,6,-1.499999928e+01,0.00e+00,8008,S,71,43*2a
$PADCL,-573.540,-458.948,C,-300.0,-300.0,D,9049,9047,I,100,100,R,0.00,T*0e
$PADCH,4,1,32,7,15,28,430,19,17,3,432,F0F70207,F1F7131F,10101101*2c
$PADCH,4,2,32,435,429,436,11,29,2,24,8,0702000F,1F11131F,11100011*12
$PADCH,4,3,32,12,4,16,31,23,10,14,26,00000000,11111131,00101001*68
$PADCH,4,4,32,5,428,433,437,434,431,426,425,00000700,11111F11,00001111*26
$PADST,F7F703E9,325,4317,V,1,C,712,660,660,2640,259,N,39,0*42
$PADES,0769C1F0,02000000,00000000,2AD590E4*37
$PADAS,1FFFFFFF,FF800000,00000000,FFFFFFFE*3b
$GPGGA,222443.664,4042.27323,N,07400.81545,W,1,06,6.1,58.59,M,-34.24,M,,0*6c
$GPGSA,A,3,07,28,432,429,08,431,,,,,,,7.4,6.1,4.3*08
$GPGSV,8,1,32,07,61,194,44,15,-2,336,,28,39,303,44,430,15,328,24*5c
$GPGSV,8,2,32,19,37,051,00,17,13,242,27,03,08,063,,432,56,159,43*4d
$GPGSV,8,3,32,435,43,032,,429,70,272,45,436,43,032,,11,64,121,*4e
$GPGSV,8,4,32,29,-79,086,,02,-51,233,14,24,48,142,,08,69,275,38*7f
$GPGSV,8,5,32,12,-62,269,,04,-26,213,,16,-5,105,,31,-55,131,00*48
$GPGSV,8,6,32,23,-17,172,,10,-28,233,,14,-40,062,,26,15,305,*52
$GPGSV,8,7,32,05,-30,278,,428,-2,086,,433,04,038,,437,-15,314,*5a
$GPGSV,8,8,32,434,-5,045,,431,68,318,47,426,-1,152,,425,02,152,*7e
$GPGLL,0000.00000,N,00000.00000,E,222443.66,A*05
$GPRMC,222443.66,A,4042.26768,N,07400.81314,W,0.257,170.48,300611,,,A*71
$GPVTG,183.94,T,-0.061,M,0.044,N,0.081,K,A*37
$PADAC,45.41,N,72.87,E,5.71e+01,U,0.68,N,0.97,E,1.22e+00,U,1.18,M,6.28,H*5b
$PADCP,5.16e+02,7.65e+02,1.33e+03,4.05e+01,-1.21e+02,8.15e+02*61
$PADCV,1.16e-01,1.39e-01,2.33e-01,-2.25e-02,-9.30e-02,3.73e-01*47
$PADRA,0,000.779,1947.66,6444.03,0.78,15,P,0,000.030,16.05,88.81,0.04,15*3a
$PADTI,426298.664357,1642,5,8,-1.499999929e+01,0.00e+00,8018,S,71,43*2d
$PADCL,-573.608,-458.971,C,-300.0,-300.0,D,9050,9050,I,100,100,R,0.00,T*05
$PADCH,4,1,32,7,15,28,430,19,17,3,432,F0F70607,F1F7371F,10101111*2f
$PADCH,4,2,32,435,429,436,11,29,2,24,8,0702000F,1F11131F,11100011*12
$PADCH,4,3,32,12,4,16,31,23,10,14,26,00000000,11131111,00101001*68
$PADCH,4,4,32,5,428,433,437,434,431,426,425,00000700,11111F11,00001111*26
$PADST,FFF903E5,325,4317,V,1,C,701,660,660,2640,257,N,39,0*3d
$PADES,0769C1F0,02000000,00000000,2AD590E4*37
$PADAS,1FFFFFFF,FF800000,00000000,FFFFFFFE*3b
$GPGGA,222444.664,4042.27241,N,07400.81341,W,1,06,6.1,70.05,M,-34.24,M,,0*6f
$GPGSA,A,3,07,28,432,429,08,431,,,,,,,7.4,6.1,4.3*08
$GPGSV,8,1,32,07,61,194,44,15,-2,336,00,28,39,303,44,430,15,328,25*5d
$GPGSV,8,2,32,19,37,051,,17,13,242,35,03,08,063,,432,56,159,43*4e
$GPGSV,8,3,32,435,43,032,,429,70,272,45,436,43,032,,11,64,121,*4e
$GPGSV,8,4,32,29,-79,086,,02,-51,233,,24,48,142,,08,69,275,38*7a
$GPGSV,8,5,32,12,-62,269,,04,-26,213,,16,-5,105,00,31,-55,131,*48
$GPGSV,8,6,32,23,-17,172,,10,-28,233,,14,-40,062,,26,15,305,*52
$GPGSV,8,7,32,05,-30,278,,428,-2,086,,438,-2,352,,437,-15,314,*45
$GPGSV,8,8,32,434,-5,045,,431,68,318,47,426,-1,152,,425,02,152,*7e
$GPGLL,0000.00000,N,00000.00000,E,222444.66,A*02
$GPRMC,222444.66,A,4042.26767,N,07400.81312,W,0.102,157.92,300611,,,A*7e
$GPVTG,92.76,T,-0.025,M,0.036,N,0.066,K,A*06
$PADAC,45.44,N,72.90,E,5.71e+01,U,0.68,N,0.97,E,1.22e+00,U,1.18,M,6.28,H*58
$PADCP,5.16e+02,7.66e+02,1.33e+03,4.14e+01,-1.20e+02,8.16e+02*60
$PADCV,1.16e-01,1.39e-01,2.34e-01,-2.27e-02,-9.33e-02,3.74e-01*46
$PADRA,0,000.967,1949.86,6466.22,0.97,7,P,0,000.014,16.05,88.74,0.02,2*36
$PADTI,426299.664363,1642,5,10,-1.499999929e+01,0.00e+00,8028,S,81,43*1e
$PADCL,-573.617,-458.974,C,-300.0,-300.0,D,9051,9050,I,100,100,R,0.00,T*0f
$PADCH,4,1,32,7,15,28,430,19,17,3,432,F0F70607,F3F7171F,10100111*2e
$PADCH,4,2,32,435,429,436,11,29,2,24,8,0702000F,1F11111F,11100011*10
$PADCH,4,3,32,12,4,16,31,23,10,14,26,00000000,11311111,00101001*68
$PADCH,4,4,32,5,428,438,437,434,431,426,425,00000700,11111F11,00001111*2d
$PADST,E7EB03ED,325,4317,V,1,C,698,660,660,2640,262,N,39,0*41
$PADES,0769C1F0,02000000,00000000,2AD590E4*37
$PADAS,1FFFFFFF,FF800000,00000000,FFFFFFFE*3b
$GPGGA,222445.664,4042.27634,N,07400.80600,W,1,07,3.5,55.64,M,-34.24,M,,0*69
$GPGSA,A,3,07,28,17,432,429,08,431,,,,,,5.0,3.5,3.5*08
$GPGSV,8,1,32,07,61,194,44,15,-2,336,12,28,39,303,44,430,15,328,25*5e
$GPGSV,8,2,32,19,37,051,,17,13,242,35,03,08,063,,432,56,159,42*4f
$GPGSV,8,3,32,435,43,032,,429,70,272,46,436,43,032,,11,64,121,*4d
$GPGSV,8,4,32,29,-79,086,,02,-51,233,,24,48,142,01,08,69,275,38*7b
$GPGSV,8,5,32,12,-62,269,,04,-26,213,,16,-5,105,,31,-55,131,*48
$GPGSV,8,6,32,23,-17,172,,10,-28,233,,14,-40,062,06,26,15,305,*54
$GPGSV,8,7,32,05,-30,278,,428,-2,086,,438,-2,352,,437,-15,314,*45
$GPGSV,8,8,32,427,-57,215,,431,68,318,46,426,-1,152,,425,02,152,*4d
$GPGLL,0000.00000,N,00000.00000,E,222445.66,A*03
$GPRMC,222445.66,A,4042.26778,N,07400.81301,W,0.038,131.79,300611,,,A*7e
$GPVTG,58.17,T,0.012,M,0.026,N,0.048,K,A*23
$PADAC,31.51,N,54.90,E,5.24e+01,U,0.68,N,0.97,E,1.23e+00,U,1.18,M,6.28,H*5a
$PADCP,2.48e+02,3.73e+02,7.53e+02,-1.46e+02,-3.95e+02,6.87e+02*4b
$PADCV,1.15e-01,1.39e-01,2.35e-01,-2.40e-02,-9.57e-02,3.75e-01*46
$PADRA,0,000.779,350.39,345.02,1.10,7,P,0,000.032,7.80,43.75,0.05,15*32
$PADTI,426300.664369,1642,1,1,-1.499999929e+01,0.00e+00,8038,S,81,43*20
$PADCL,-573.639,-458.981,C,-300.0,-300.0,D,9051,9051,I,100,100,R,0.00,T*08
$PADCH,4,1,32,7,15,28,430,19,17,3,432,F0F70F07,F3F71F1F,10101111*2e
$PADCH,4,2,32,435,429,436,11,29,2,24,8,0702000F,1F11113F,11100011*12
$PADCH,4,3,32,12,4,16,31,23,10,14,26,00000000,11111131,00001001*69
$PADCH,4,4,32,5,428,438,437,427,431,426,425,00000700,11111F11,00004111*2a
$PADST,EFE903FB,325,4317,V,0,C,718,660,660,2640,262,N,39,0*46
$PADES,0769C1F0,02000000,00000000,2AD590E4*37
$PADAS,1FFFFFFF,FF800000,00000000,FFFFFFFE*3b
$GPGGA,222446.664,4042.27631,N,07400.80765,W,1,07,3.5,51.39,M,-34.24,M,,0*61
$GPGSA,A,3,07,28,17,432,429,08,431,,,,,,5.0,3.5,3.5*08
$GPGSV,8,1,32,07,61,194,44,15,-2,336,13,28,39,303,44,430,15,328,26*5c
$GPGSV,8,2,32,19,37,051,,17,13,242,34,03,08,063,,432,56,159,42*4e
$GPGSV,8,3,32,435,43,032,,429,70,272,46,436,43,032,,11,64,121,*4d
$GPGSV,8,4,32,29,-79,086,,02,-51,233,,24,48,142,27,08,69,275,37*70
$GPGSV,8,5,32,12,-62,269,,04,-26,213,,16,-5,106,,31,-55,131,*4b
$GPGSV,8,6,32,06,-3,062,,10,-28,233,,14,-40,062,14,26,15,305,*65
$GPGSV,8,7,32,05,-30,278,,428,-2,086,02,438,-2,352,,433,04,038,*63
$GPGSV,8,8,32,427,-57,215,,431,68,318,45,426,-1,152,,425,02,152,*4e
$GPGLL,0000.00000,N,00000.00000,E,222446.66,A*00
$GPRMC,222446.66,A,4042.26794,N,07400.81290,W,0.018,166.40,300611,,,A*7c
$GPVTG,217.52,T,0.000,M,0.018,N,0.033,K,A*19
$PADAC,23.55,N,45.57,E,5.03e+01,U,0.67,N,0.96,E,1.21e+00,U,1.17,M,6.28,H*50
$PADCP,1.39e+02,2.13e+02,5.19e+02,-2.24e+02,-5.09e+02,6.33e+02*4e
$PADCV,1.11e-01,1.35e-01,2.29e-01,-3.04e-02,-1.04e-01,3.67e-01*4c
$PADRA,0,000.779,290.36,306.53,1.08,7,P,0,000.033,6.97,15.51,0.05,9*04
$PADTI,426301.664374,1642,1,3,-1.499999929e+01,0.00e+00,8048,S,91,43*29
$PADCL,-573.633,-458.979,C,-300.0,-300.0,D,9051,9051,I,100,100,R,0.00,T*05
$PADCH,4,1,32,7,15,28,430,19,17,3,432,F0F70F07,F3F71F1F,10101111*2e
$PADCH,4,2,32,435,429,436,11,29,2,24,8,0702000F,1F11117F,11100011*16
$PADCH,4,3,32,12,4,16,31,6,10,14,26,00000000,11110131,00100001*5f
$PADCH,4,4,32,5,428,438,433,427,431,426,425,00000700,13111F11,00004111*2c
$PADST,EFE103E5,325,4317,V,1,C,711,660,660,2640,272,N,39,0*33
$PADES,0769C1F0,02000000,00000000,2AD590E4*37
$PADAS,1FFFFFFF,FF800000,00000000,FFFFFFFE*3b
$GPGGA,222447.664,4042.28194,N,07400.79644,W,1,07,3.5,58.70,M,-34.24,M,,0*67
$GPGSA,A,3,07,28,17,432,429,08,431,,,,,,5.0,3.5,3.5*08
$GPGSV,8,1,32,07,61,194,44,15,-2,336,14,28,39,303,44,430,15,328,27*5a
$GPGSV,8,2,32,19,37,051,,17,13,242,34,03,08,063,01,432,56,159,42*4f
$GPGSV,8,3,32,435,43,032,,429,70,272,47,436,43,032,,11,64,121,*4c
$GPGSV,8,4,32,29,-79,086,,02,-51,233,,24,48,142,,08,69,275,37*75
$GPGSV,8,5,32,27,-22,334,,04,-26,213,,16,-5,106,,31,-55,131,*40
$GPGSV,8,6,32,06,-3,062,,10,-28,233,,14,-40,062,,26,15,305,*60
$GPGSV,8,7,32,05,-30,278,,428,-2,086,09,438,-2,352,,433,04,038,*68
$GPGSV,8,8,32,427,-57,215,,431,68,318,45,434,-5,045,,425,02,152,*4e
$GPGLL,0000.00000,N,00000.00000,E,222447.66,A*01
$GPRMC,222447.66,A,4042.26821,N,07400.81258,W,0.041,231.21,300611,,,A*72
$GPVTG,237.38,T,0.025,M,0.059,N,0.109,K,A*1d
$PADAC,23.58,N,45.61,E,5.04e+01,U,0.52,N,0.82,E,1.07e+00,U,0.98,M,6.28,H*5e
$PADCP,1.39e+02,2.14e+02,5.20e+02,-2.23e+02,-5.09e+02,6.36e+02*41
$PADCV,6.87e-02,8.41e-02,1.70e-01,-9.21e-02,-1.79e-01,2.86e-01*48
$PADRA,0,000.931,290.64,309.05,1.31,7,P,0,000.086,7.01,8.04,0.13,29*0e
$PADTI,426302.664380,1642,1,5,-1.499999930e+01,0.00e+00,8058,S,91,43*2e
$PADCL,-573.657,-458.988,C,-300.0,-300.0,D,9052,9052,I,100,100,R,0.00,T*09
$PADCH,4,1,32,7,15,28,430,19,17,3,432,F0F70F07,F3F71F3F,10101111*2c
$PADCH,4,2,32,435,429,436,11,29,2,24,8,0702000F,1F11111F,11100001*11
$PADCH,4,3,32,27,4,16,31,6,10,14,26,00000000,11111111,00101001*5b
$PADCH,4,4,32,5,428,438,433,427,431,434,425,00000700,13111F11,00004111*2f
$PADST,F7F703E9,325,4317,V,1,C,698,660,660,2640,262,N,39,0*49
$PADES,0769C1F0,02000000,00000000,2AD590E4*37
$PADAS,1FFFFFFF,FF800000,00000000,FFFFFFFE*3b
$GPGGA,222448.664,4042.27890,N,07400.80204,W,1,07,3.5,64.42,M,-34.24,M,,0*62
$GPGSA,A,3,07,28,17,432,429,08,431,,,,,,5.0,3.5,3.5*08
$GPGSV,8,1,32,07,61,194,44,15,-2,336,13,28,39,303,44,430,15,328,29*53
$GPGSV,8,2,32,19,37,051,,17,13,242,34,03,08,063,,432,56,159,42*4e
$GPGSV,8,3,32,435,43,032,,429,70,273,48,436,43,032,,11,64,121,*42
$GPGSV,8,4,32,29,-79,086,,02,-51,233,,24,48,142,,08,69,275,35*77
$GPGSV,8,5,32,27,-22,334,,04,-26,213,,16,-5,106,,31,-55,131,*40
$GPGSV,8,6,32,06,-3,062,,10,-28,233,,14,-40,062,,26,15,305,*60
$GPGSV,8,7,32,05,-30,278,,428,-2,086,,438,-2,352,,433,04,038,*61
$GPGSV,8,8,32,427,-57,215,,431,68,318,45,434,-5,045,,425,02,152,*4e
$GPGLL,0000.00000,N,00000.00000,E,222448.66,A*0e
$GPRMC,222448.66,A,4042.26842,N,07400.81239,W,0.024,228.95,300611,,,A*7b
$GPVTG,225.07,T,0.005,M,0.017,N,0.032,K,A*13
$PADAC,23.59,N,45.69,E,5.08e+01,U,0.53,N,0.84,E,1.09e+00,U,0.99,M,6.28,H*53
$PADCP,1.39e+02,2.14e+02,5.22e+02,-2.25e+02,-5.14e+02,6.45e+02*4d
$PADCV,6.94e-02,8.59e-02,1.75e-01,-9.60e-02,-1.88e-01,2.98e-01*42
$PADRA,0,001.123,291.91,315.44,1.51,7,P,0,000.017,7.27,8.36,0.02,5*32
$PADTI,426303.664386,1642,1,6,-1.499999930e+01,0.00e+00,8068,S,A1,43*51
$PADCL,-573.662,-458.989,C,-300.0,-300.0,D,9053,9052,I,100,100,R,0.00,T*0f
$PADCH,4,1,32,7,15,28,430,19,17,3,432,F0F70F07,F3F71F1F,10101101*2f
$PADCH,4,2,32,435,429,436,11,29,2,24,8,0702000F,1F11111F,11100011*10
$PADCH,4,3,32,27,4,16,31,6,10,14,26,00000000,11111111,00101001*5b
$PADCH,4,4,32,5,428,438,433,427,431,434,425,00000700,11111F11,00004111*2d
$PADST,FFF903ED,325,4317,V,1,C,695,660,660,2640,264,N,39,0*40
$PADES,0769C1F0,02000000,00000000,2AD590E4*37
$PADAS,1FFFFFFF,FF800000,00000000,FFFFFFFE*3b
$GPGGA,222449.664,4042.28311,N,07400.79369,W,1,07,3.5,65.53,M,-34.24,M,,0*63
$GPGSA,A,3,07,28,17,432,429,08,431,,,,,,5.0,3.5,3.5*08
$GPGSV,8,1,32,07,61,194,44,15,-2,336,13,28,39,303,44,430,15,328,30*5b
$GPGSV,8,2,32,19,37,051,,17,13,242,35,03,08,063,,432,56,159,42*4f
$GPGSV,8,3,32,435,43,032,,429,70,273,48,436,43,032,,11,64,121,00*42
$GPGSV,8,4,32,29,-79,086,,18,-7,014,,24,48,142,,08,69,275,33*4e
$GPGSV,8,5,32,27,-22,334,,21,-35,012,,01,,,,30,-27,114,*6c
$GPGSV,8,6,32,06,-3,062,,10,-28,233,,14,-40,062,,26,15,305,*60
$GPGSV,8,7,32,05,-30,278,,428,-2,086,,437,-15,314,,433,04,038,*5a
$GPGSV,8,8,32,427,-57,215,,431,68,318,44,434,-5,045,,425,02,152,*4f
$GPGLL,0000.00000,N,00000.00000,E,222449.66,A*0f
$GPRMC,222449.66,A,4042.26870,N,07400.81203,W,0.012,246.84,300611,,,A*7f
$GPVTG,261.12,T,-0.009,M,0.010,N,0.018,K,A*39
$PADAC,23.55,N,45.84,E,5.15e+01,U,0.53,N,0.85,E,1.13e+00,U,1.00,M,6.28,H*5b
$PADCP,1.39e+02,2.14e+02,5.25e+02,-2.28e+02,-5.25e+02,6.62e+02*40
$PADCV,6.95e-02,8.82e-02,1.83e-01,-1.04e-01,-2.05e-01,3.17e-01*45
$PADRA,0,001.240,294.24,328.26,1.69,29,P,0,000.046,7.75,8.95,0.07,5*0d
$PADTI,426304.664391,1642,1,8,-1.499999931e+01,0.00e+00,8078,S,A1,43*5e
$PADCL,-573.665,-458.990,C,-300.0,-300.0,D,9052,9052,I,100,100,R,0.00,T*01
$PADCH,4,1,32,7,15,28,430,19,17,3,432,F0F70F07,F3F71F1F,10101111*2e
$PADCH,4,2,32,435,429,436,11,29,18,24,8,0702000F,1F13111F,11100011*29
$PADCH,4,3,32,27,21,1,30,6,10,14,26,00000000,10011111,00451001*5b
$PADCH,4,4,32,5,428,437,433,427,431,434,425,00000700,11111F11,00004111*22
$PADST,F7FB03EB,325,4317,V,1,C,689,660,660,2640,271,N,39,0*45
$PADES,0769C1F0,02000000,00000000,2AD590E4*37
$PADAS,1FFFFFFF,FF800000,00000000,FFFFFFFE*3b
$GPGGA,222450.664,4042.28680,N,07400.78536,W,1,07,3.5,57.31,M,-34.24,M,,0*6e
$GPGSA,A,3,07,28,17,432,429,08,431,,,,,,5.0,3.5,3.5*08
$GPGSV,8,1,32,07,61,194,44,15,-2,336,13,28,39,303,44,430,15,328,31*5a
$GPGSV,8,2,32,19,37,051,,17,13,242,35,03,08,063,,432,56,159,41*4c
$GPGSV,8,3,32,435,43,032,,429,70,273,48,436,43,032,,11,64,121,13*40
$GPGSV,8,4,32,13,-3,196,,18,-7,014,,24,48,142,,08,69,275,31*78
$GPGSV,8,5,32,27,-22,334,,21,-35,012,,01,,,,30,-27,114,*6c
$GPGSV,8,6,32,06,-3,062,,22,-0,044,,14,-40,062,,26,15,305,*59
$GPGSV,8,7,32,05,-30,278,,428,-2,086,02,437,-15,314,,433,04,038,*58
$GPGSV,8,8,32,427,-57,215,,431,68,318,43,434,-5,045,,425,02,152,*48
$GPGLL,0000.00000,N,00000.00000,E,222450.66,A*07
$GPRMC,222450.66,A,4042.26903,N,07400.81154,W,0.033,247.98,300611,,,A*7c
$GPVTG,246.44,T,0.029,M,0.048,N,0.089,K,A*15
$PADAC,23.64,N,46.17,E,5.23e+01,U,0.53,N,0.88,E,1.16e+00,U,1.03,M,6.28,H*5e
$PADCP,1.40e+02,2.17e+02,5.33e+02,-2.32e+02,-5.36e+02,6.84e+02*4b
$PADCV,7.15e-02,9.22e-02,1.93e-01,-1.08e-01,-2.17e-01,3.36e-01*4a
$PADRA,0,001.428,296.81,344.09,1.99,29,P,0,000.015,8.12,9.41,0.02,0*00
$PADTI,426305.664397,1642,1,10,-1.499999931e+01,0.00e+00,8088,S,B1,43*6c
$PADCL,-573.691,-458.999,C,-300.0,-300.0,D,9053,9053,I,100,100,R,0.00,T*03
$PADCH,4,1,32,7,15,28,430,19,17,3,432,F0F70F07,F3F71F1F,10101111*2e
$PADCH,4,2,32,435,429,436,11,13,18,24,8,0702000F,1F13111F,11101011*21
$PADCH,4,3,32,27,21,1,30,6,22,14,26,00000000,11111011,01451001*5a
$PADCH,4,4,32,5,428,437,433,427,431,434,425,00000700,13111F11,00004111*20
$PADST,F7F303EF,325,4317,V,1,C,706,660,660,2640,274,N,39,0*33
$PADES,0769C1F0,02000000,00000000,2AD590E4*37
$PADAS,1FFFFFFF,FF800000,00000000,FFFFFFFE*3b
$GPGGA,222451.664,4042.29092,N,07400.77694,W,1,07,3.5,53.77,M,-34.24,M,,0*69
$GPGSA,A,3,07,28,17,432,429,08,431,,,,,,5.0,3.5,3.5*08
$GPGSV,8,1,32,07,61,194,45,15,-2,336,12,28,39,303,45,430,15,328,32*58
$GPGSV,8,2,32,19,37,051,20,17,13,242,36,03,08,063,,432,56,159,41*4d
$GPGSV,8,3,32,435,43,032,,429,70,273,48,436,43,032,,11,64,121,*42
$GPGSV,8,4,32,13,-3,196,,18,-7,014,,24,48,142,01,08,69,275,28*71
$GPGSV,8,5,32,27,-22,334,,21,-35,012,,01,,,,30,-27,114,*6c
$GPGSV,8,6,32,06,-3,062,,22,-0,044,,14,-40,062,,26,15,305,*59
$GPGSV,8,7,32,05,-30,278,,428,-2,086,,437,-15,314,,433,04,038,*5a
$GPGSV,8,8,32,427,-57,215,,431,68,318,43,434,-5,045,,426,-1,152,*55
$GPGLL,0000.00000,N,00000.00000,E,222451.66,A*06
$GPRMC,222451.66,A,4042.26943,N,07400.81092,W,0.013,193.98,300611,,,A*7a
$GPVTG,155.45,T,-0.014,M,0.017,N,0.032,K,A*3c
$PADAC,23.64,N,46.61,E,5.38e+01,U,0.53,N,0.89,E,1.18e+00,U,1.04,M,6.28,H*5d
$PADCP,1.40e+02,2.19e+02,5.43e+02,-2.39e+02,-5.60e+02,7.25e+02*40
$PADCV,7.10e-02,9.31e-02,1.98e-01,-1.14e-01,-2.30e-01,3.47e-01*48
$PADRA,0,001.251,320.00,378.65,1.77,29,P,0,000.055,8.42,9.79,0.08,29*33
$PADTI,426306.664403,1642,2,1,-1.499999931e+01,0.00e+00,8098,S,B1,43*57
$PADCL,-573.695,-459.001,C,-300.0,-300.0,D,9053,9053,I,100,100,R,0.00,T*0e
$PADCH,4,1,32,7,15,28,430,19,17,3,432,F0F7FF07,F3F77F1F,10101111*5e
$PADCH,4,2,32,435,429,436,11,13,18,24,8,0700000F,1F11113F,11101011*23
$PADCH,4,3,32,27,21,1,30,6,22,14,26,00000000,11111111,01451001*5b
$PADCH,4,4,32,5,428,437,433,427,431,434,426,00000700,11111F11,00004111*21
$PADST,FFFD03E5,325,4317,V,1,C,681,660,660,2640,267,N,39,0*4a
$PADES,0769C1F0,02000000,00000000,2AD590E4*37
$PADAS,1FFFFFFF,FF800000,00000000,FFFFFFFE*3b
$GPGGA,222452.664,4042.27781,N,07400.82537,W,1,09,1.1,159.28,M,-34.24,M,,0*58
$GPGSA,A,3,07,28,19,17,432,429,24,08,431,,,,2.2,1.1,1.8*0a
$GPGSV,8,1,32,07,61,194,44,15,-2,336,12,28,39,303,44,430,15,328,33*59
$GPGSV,8,2,32,19,37,051,33,17,13,242,37,03,08,063,,432,56,159,40*4f
$GPGSV,8,3,32,435,43,032,,429,70,273,49,436,43,032,,11,64,121,00*43
$GPGSV,8,4,32,13,-3,196,,18,-7,014,,24,48,142,26,08,69,274,25*78
$GPGSV,8,5,32,27,-22,334,,21,-35,012,,01,,,,30,-27,114,*6c
$GPGSV,8,6,32,06,-3,062,,22,-0,044,,25,-81,202,,26,15,305,*52
$GPGSV,8,7,32,05,-30,278,,428,-2,086,04,437,-15,314,,433,04,038,*5e
$GPGSV,8,8,32,427,-57,215,,431,68,318,43,438,-2,352,,426,-1,152,*5b
$GPGLL,0000.00000,N,00000.00000,E,222452.66,A*05
$GPRMC,222452.66,A,4042.26973,N,07400.81145,W,0.019,240.33,300611,,,A*77
$GPVTG,241.84,T,-0.006,M,0.023,N,0.042,K,A*34
$PADAC,19.29,N,32.46,E,4.34e+01,U,0.53,N,0.89,E,1.18e+00,U,1.04,M,6.28,H*56
$PADCP,9.30e+01,8.81e+01,2.63e+02,-1.06e+02,-2.70e+02,4.70e+02*4b
$PADCV,6.98e-02,9.19e-02,1.99e-01,-1.15e-01,-2.33e-01,3.48e-01*4f
$PADRA,1,002.541,162.95,186.95,4.79,4,P,0,000.017,8.10,9.41,0.03,5*38
$PADTI,426307.664408,1642,2,3,-1.499999930e+01,0.00e+00,8108,S,C1,43*57
$PADCL,-573.693,-459.000,C,-300.0,-300.0,D,9053,9053,I,100,100,R,0.00,T*09
$PADCH,4,1,32,7,15,28,430,19,17,3,432,F0F7FF07,F3F7FF1F,10101111*2f
$PADCH,4,2,32,435,429,436,11,13,18,24,8,070200FF,0F1311FF,01101011*20
$PADCH,4,3,32,27,21,1,30,6,22,25,26,00000000,11111111,01451001*59
$PADCH,4,4,32,5,428,437,433,427,431,438,426,00000700,13111F11,00004101*2e
$PADST,EFED03F9,325,4317,V,0,C,690,660,660,2640,265,N,39,0*46
$PADES,0769C1F0,02000000,00000000,2AD590E4*37
$PADAS,1FFFFFFF,FF800000,00000000,FFFFFFFE*3b
$GPGGA,222453.664,4042.30543,N,07400.74849,W,1,07,3.5,62.37,M,-34.24,M,,0*61
$GPGSA,A,3,07,28,17,432,429,08,431,,,,,,5.0,3.5,3.5*08
$GPGSV,8,1,32,07,61,194,45,15,-2,336,12,28,39,303,45,430,15,328,34*5e
$GPGSV,8,2,32,19,37,051,34,17,13,242,38,03,08,063,,432,56,159,40*47
$GPGSV,8,3,32,435,43,032,,429,70,273,49,436,43,032,,11,64,121,10*42
$GPGSV,8,4,32,13,-3,196,,18,-7,014,,24,48,142,31,08,69,274,23*78
$GPGSV,8,5,32,27,-22,334,,21,-35,012,,01,,,,30,-27,114,*6c
$GPGSV,8,6,32,06,-3,062,,22,-0,044,,25,-81,202,,26,15,305,*52
$GPGSV,8,7,32,05,-30,278,,428,-2,086,,437,-15,314,,425,02,152,*56
$GPGSV,8,8,32,427,-57,215,,431,68,318,43,438,-2,351,,426,-1,152,*58
$GPGLL,0000.00000,N,00000.00000,E,222453.66,A*04
$GPRMC,222453.66,A,4042.27035,N,07400.81037,W,0.021,85.84,300611,,,A*44
$GPVTG,87.38,T,-0.014,M,0.033,N,0.061,K,A*08
$PADAC,23.68,N,47.27,E,5.60e+01,U,0.53,N,0.90,E,1.19e+00,U,1.04,M,6.28,H*56
$PADCP,1.40e+02,2.23e+02,5.59e+02,-2.50e+02,-5.94e+02,7.84e+02*4d
$PADCV,6.99e-02,9.29e-02,2.01e-01,-1.18e-01,-2.39e-01,3.52e-01*43
$PADRA,0,000.378,368.39,440.09,0.52,0,P,0,000.049,8.52,9.91,0.08,29*0f
$PADTI,426308.664414,1642,2,5,-1.499999933e+01,0.00e+00,8118,S,C1,43*51
$PADCL,-573.732,-459.013,C,-300.0,-300.0,D,9054,9054,I,100,100,R,0.00,T*01
$PADCH,4,1,32,7,15,28,430,19,17,3,432,F0F7BF07,F3F77F1F,10101111*5a
$PADCH,4,2,32,435,429,436,11,13,18,24,8,070200FF,1F13117F,11101011*51
$PADCH,4,3,32,27,21,1,30,6,22,25,26,00000000,11111111,01451001*59
$PADCH,4,4,32,5,428,437,425,427,431,438,426,00000700,11111F11,00014101*2a
$PADST,F7F703E5,325,4317,V,0,C,676,660,660,2640,259,N,39,0*4c
$PADES,0769C1F0,02000000,00000000,2AD590E4*37
$PADAS,1FFFFFFF,FF800000,00000000,FFFFFFFE*3b
$GPGGA,222454.664,4042.29568,N,07400.76604,W,1,07,3.5,56.92,M,-34.24,M,,0*6a
$GPGSA,A,3,07,28,432,429,24,08,431,,,,,,5.5,3.5,4.2*0d
$GPGSV,8,1,32,07,61,194,45,15,-2,336,12,28,39,303,45,430,15,328,34*5e
$GPGSV,8,2,32,19,37,051,34,17,13,242,38,03,08,063,,432,56,159,40*47
$GPGSV,8,3,32,435,43,032,,429,70,273,49,436,43,032,,11,64,121,*43
$GPGSV,8,4,32,13,-3,196,,18,-7,014,,24,48,142,29,08,69,274,25*77
$GPGSV,8,5,32,27,-22,334,,21,-35,012,,01,,,,30,-27,114,*6c
$GPGSV,8,6,32,06,-3,062,,22,-0,044,,25,-81,202,,26,15,305,07*55
$GPGSV,8,7,32,05,-30,278,,428,-2,086,02,434,-5,045,,425,02,152,*61
$GPGSV,8,8,32,427,-57,215,,431,68,318,43,438,-2,351,,426,-1,152,*58
$GPGLL,0000.00000,N,00000.00000,E,222454.66,A*03
$GPRMC,222454.66,A,4042.27055,N,07400.81001,W,0.023,207.89,300611,,,A*77
$GPVTG,223.73,T,-0.007,M,0.053,N,0.099,K,A*38
$PADAC,46.46,N,69.40,E,7.06e+01,U,0.70,N,1.05,E,1.36e+00,U,1.26,M,6.28,H*57
$PADCP,5.40e+02,7.39e+02,1.20e+03,2.45e+02,1.05e+02,1.25e+03*48
$PADCV,1.22e-01,1.55e-01,2.74e-01,-4.09e-02,-1.47e-01,4.63e-01*4c
$PADRA,0,001.302,1721.12,7151.15,1.83,9,P,0,000.038,16.62,89.59,0.06,9*33
$PADTI,426309.664420,1642,2,6,-1.499999932e+01,0.00e+00,8128,S,D1,43*51
$PADCL,-573.795,-459.035,C,-300.0,-300.0,D,9057,9057,I,100,100,R,0.00,T*08
$PADCH,4,1,32,7,15,28,430,19,17,3,432,F0F7FF07,F3F7771F,10101111*2f
$PADCH,4,2,32,435,429,436,11,13,18,24,8,070000FF,1F1111FF,11101011*20
$PADCH,4,3,32,27,21,1,30,6,22,25,26,00000000,11111113,01451001*5b
$PADCH,4,4,32,5,428,434,425,427,431,438,426,00000700,13111F11,00114101*2a
$PADST,F7F303F9,325,4317,V,0,C,678,660,660,2640,270,N,39,0*42
$PADES,0769C1F0,02000000,00000000,2AD590E4*37
$PADAS,1FFFFFFF,FF800000,00000000,FFFFFFFE*3b
$GPGGA,222455.664,4042.27762,N,07400.83041,W,1,08,1.3,202.49,M,-34.24,M,,0*5e
$GPGSA,A,3,07,28,19,17,432,429,08,431,,,,,2.2,1.3,1.8*0e
$GPGSV,8,1,32,07,61,194,44,15,-2,336,12,28,39,303,44,430,15,328,34*5e
$GPGSV,8,2,32,19,37,051,34,17,13,242,38,03,08,063,,432,56,159,40*47
$GPGSV,8,3,32,435,43,032,,429,70,273,49,436,43,032,,11,64,121,*43
$GPGSV,8,4,32,13,-3,196,,18,-7,014,00,24,48,142,29,08,69,274,24*76
$GPGSV,8,5,32,27,-22,334,,21,-35,012,,01,,,,30,-27,114,*6c
$GPGSV,8,6,32,06,-3,062,,22,-0,044,,25,-81,202,,26,15,305,12*51
$GPGSV,8,7,32,05,-30,278,,428,-2,086,07,434,-5,045,,425,02,152,*64
$GPGSV,8,8,32,427,-57,215,,431,68,318,43,438,-2,351,,426,-1,152,*58
$GPGLL,0000.00000,N,00000.00000,E,222455.66,A*02
$GPRMC,222455.66,A,4042.27067,N,07400.81041,W,0.049,234.06,300611,,,A*78
$GPVTG,236.26,T,0.015,M,0.064,N,0.119,K,A*1f
$PADAC,18.88,N,31.66,E,4.30e+01,U,0.69,N,1.03,E,1.35e+00,U,1.24,M,6.28,H*5e
$PADCP,8.91e+01,7.96e+01,2.51e+02,-9.88e+01,-2.59e+02,4.62e+02*4c
$PADCV,1.19e-01,1.50e-01,2.66e-01,-4.07e-02,-1.45e-01,4.57e-01*49
$PADRA,5,003.639,175.30,202.06,6.24,4,P,0,000.027,8.10,28.73,0.05,7*02
$PADTI,426310.664425,1642,2,8,-1.499999931e+01,0.00e+00,8138,S,D1,43*50
$PADCL,-573.784,-459.031,C,-300.0,-300.0,D,9056,9056,I,100,100,R,0.00,T*0c
$PADCH,4,1,32,7,15,28,430,19,17,3,432,F0F7FF07,F3F7FF1F,10101111*2f
$PADCH,4,2,32,435,429,436,11,13,18,24,8,070200FF,1F11137F,11101011*51
$PADCH,4,3,32,27,21,1,30,6,22,25,26,00000000,11111113,01451001*5b
$PADCH,4,4,32,5,428,434,425,427,431,438,426,00000700,13111F11,00114101*2a
$PADST,E7E703E3,325,4317,V,0,C,692,660,660,2640,272,N,39,0*49
$PADES,0769C1F0,02000000,00000000,2AD590E4*37
$PADAS,1FFFFFFF,FF800000,00000000,FFFFFFFE*3b
$GPGGA,222456.664,4042.25359,N,07400.86307,W,1,07,1.7,100.39,M,-34.24,M,,0*5a
$GPGSA,A,3,07,28,19,432,429,08,431,,,,,,4.6,1.7,4.3*00
$GPGSV,8,1,32,07,61,194,44,15,-2,336,11,28,39,303,44,430,15,328,34*5d
$GPGSV,8,2,32,19,37,051,33,17,13,242,38,03,08,063,,432,56,159,41*41
$GPGSV,8,3,32,435,43,032,,429,70,273,50,436,43,032,,11,64,121,*4b
$GPGSV,8,4,32,13,-3,196,,18,-7,014,,24,48,142,28,08,69,274,38*7a
$GPGSV,8,5,32,27,-22,334,,21,-35,012,,01,,,,20,-6,154,*5a
$GPGSV,8,6,32,06,-3,062,,22,-0,044,,25,-81,202,,26,15,305,*52
$GPGSV,8,7,32,05,-30,278,,428,-2,086,,434,-5,045,,425,02,152,*63
$GPGSV,8,8,32,427,-56,215,,431,68,318,45,433,04,038,,426,-1,152,*43
$GPGLL,0000.00000,N,00000.00000,E,222456.66,A*01
$GPRMC,222456.66,A,4042.27015,N,07400.81194,W,0.138,142.85,300611,,,A*79
$GPVTG,136.20,T,-0.054,M,0.177,N,0.328,K,A*31
$PADAC,26.17,N,35.83,E,5.66e+01,U,0.51,N,0.66,E,1.14e+00,U,0.84,M,6.28,H*59
$PADCP,1.71e+02,1.76e+02,3.21e+02,1.37e+02,4.21e+01,8.00e+02*48
$PADCV,6.61e-02,5.97e-02,1.09e-01,2.77e-02,-1.49e-02,3.27e-01*67
$PADRA,0,002.905,790.60,2260.08,4.11,4,P,0,000.092,8.06,26.58,0.16,7*3e
$PADTI,426311.664431,1642,2,10,-1.499999925e+01,0.00e+00,8148,S,E1,43*6e
$PADCL,-573.792,-459.034,C,-300.0,-300.0,D,9056,9056,I,100,100,R,0.00,T*0e
$PADCH,4,1,32,7,15,28,430,19,17,3,432,F0F7FF07,F3F7F71F,10101111*5e
$PADCH,4,2,32,435,429,436,11,13,18,24,8,070200FF,1F11117F,11101011*53
$PADCH,4,3,32,27,21,1,20,6,22,25,26,00000000,11111111,01401000*5c
$PADCH,4,4,32,5,428,434,425,427,431,433,426,00000700,11111F01,00114101*22
$PADST,F7FB03E5,325,4317,V,0,C,691,660,660,2640,271,N,39,0*3a
$PADES,0769C1F0,02000000,00000000,2AD590E4*37
$PADAS,1FFFFFFF,FF800000,00000000,FFFFFFFE*3b
$GPGGA,222457.664,4042.28166,N,07400.79097,W,1,06,6.1,68.30,M,-34.24,M,,0*64
$GPGSA,A,3,07,28,432,429,08,431,,,,,,,7.5,6.1,4.3*09
$GPGSV,8,1,32,07,61,194,45,15,-2,336,12,28,39,303,44,430,15,328,26*5c
$GPGSV,8,2,32,19,36,051,31,17,13,242,32,03,08,063,,432,56,159,41*48
$GPGSV,8,3,32,435,43,032,,429,70,273,48,436,43,032,,11,64,121,*42
$GPGSV,8,4,32,13,-3,196,,18,-7,014,,24,48,142,27,08,69,274,41*7b
$GPGSV,8,5,32,27,-22,334,,09,-38,339,,01,,,,20,-6,154,00*57
$GPGSV,8,6,32,06,-3,062,,22,-0,044,,25,-81,202,,26,15,305,*52
$GPGSV,8,7,32,05,-30,278,,428,-2,086,,434,-5,045,,425,02,152,*63
$GPGSV,8,8,32,427,-56,215,,431,68,318,46,433,04,038,,426,-1,152,*40
$GPGLL,0000.00000,N,00000.00000,E,222457.66,A*00
$GPRMC,222457.66,A,4042.27033,N,07400.81133,W,1.096,171.68,300611,,,A*76
$GPVTG,173.33,T,-0.131,M,1.790,N,3.312,K,A*34
$PADAC,45.67,N,73.58,E,5.65e+01,U,0.68,N,0.98,E,1.21e+00,U,1.19,M,6.28,H*54
$PADCP,5.21e+02,7.78e+02,1.35e+03,3.51e+01,-1.24e+02,7.98e+02*66
$PADCV,1.16e-01,1.41e-01,2.38e-01,-2.24e-02,-9.27e-02,3.68e-01*4e
$PADRA,0,000.181,1940.04,6467.01,0.18,0,P,0,000.070,16.17,88.73,0.09,9*33
$PADTI,426312.664437,1642,3,1,-1.499999931e+01,0.00e+00,8158,S,E1,43*5e
$PADCL,-573.862,-459.058,C,-300.0,-300.0,D,9058,9058,I,100,100,R,0.00,T*04
$PADCH,4,1,32,7,15,28,430,19,17,3,432,F0F7FB07,F3F7771F,10101111*2b
$PADCH,4,2,32,435,429,436,11,13,18,24,8,070200BF,1F11117F,11101011*57
$PADCH,4,3,32,27,9,1,20,6,22,25,26,00000000,11131111,00401001*64
$PADCH,4,4,32,5,428,434,425,427,431,433,426,00000700,11111F11,00114101*23
$PADST,EFE903EF,325,4317,V,0,C,684,660,660,2640,289,N,39,0*40
$PADES,0769C1F0,02000000,00000000,2AD590E4*37
$PADAS,1FFFFFFF,FF800000,00000000,FFFFFFFE*3b
$GPGGA,222458.664,4042.27315,N,07400.80714,W,1,07,3.5,60.48,M,-34.24,M,,0*6f
$GPGSA,A,3,07,28,432,429,24,08,431,,,,,,5.5,3.5,4.2*0d
